[
  {
    "id": 1,
    "lat": 53.84558443039998,
    "lng": 27.452092631899998,
    "name": "Слабадская вуліца"
  },
  {
    "id": 2,
    "lat": 53.93075593220001,
    "lng": 27.4329509928,
    "name": ""
  },
  {
    "id": 3,
    "lat": 53.910338544,
    "lng": 27.6726063214,
    "name": "вуліца Карвата"
  },
  {
    "id": 4,
    "lat": 53.933430217599984,
    "lng": 27.615490225099997,
    "name": ""
  },
  {
    "id": 5,
    "lat": 53.940593455699975,
    "lng": 27.4683371268,
    "name": ""
  },
  {
    "id": 6,
    "lat": 53.861504020099986,
    "lng": 27.4485464252,
    "name": "вуліца Бялецкага"
  },
  {
    "id": 7,
    "lat": 53.88558963769998,
    "lng": 27.667009029599996,
    "name": "Ангарскі завулак"
  },
  {
    "id": 8,
    "lat": 53.8432040902,
    "lng": 27.671999535,
    "name": "Свіслацкая вуліца"
  },
  {
    "id": 9,
    "lat": 53.9451488569,
    "lng": 27.671131615599997,
    "name": "Гарадзецкая вуліца"
  },
  {
    "id": 10,
    "lat": 53.915309891199996,
    "lng": 27.500031595499998,
    "name": ""
  },
  {
    "id": 11,
    "lat": 53.890996394899986,
    "lng": 27.646665396699998,
    "name": "Радыяльная вуліца"
  },
  {
    "id": 12,
    "lat": 53.898273617399994,
    "lng": 27.524510466999995,
    "name": "вуліца Волаха"
  },
  {
    "id": 13,
    "lat": 53.909165836199996,
    "lng": 27.5829606419,
    "name": "вуліца Смалячкова"
  },
  {
    "id": 14,
    "lat": 53.849559227899995,
    "lng": 27.451331681199996,
    "name": ""
  },
  {
    "id": 15,
    "lat": 53.884496594299996,
    "lng": 27.599086619099996,
    "name": "Планёрная вуліца"
  },
  {
    "id": 16,
    "lat": 53.93885800000001,
    "lng": 27.522049999999997,
    "name": ""
  },
  {
    "id": 17,
    "lat": 53.87673431820001,
    "lng": 27.4488031287,
    "name": "вуліца Юрыя Семянякі"
  },
  {
    "id": 18,
    "lat": 53.929756992799994,
    "lng": 27.5471571905,
    "name": ""
  },
  {
    "id": 19,
    "lat": 53.83549466799999,
    "lng": 27.5706117063,
    "name": "вуліца Прушынскіх"
  },
  {
    "id": 20,
    "lat": 53.90646583959999,
    "lng": 27.587220695599996,
    "name": "Берасцянская вуліца"
  },
  {
    "id": 21,
    "lat": 53.914231447499986,
    "lng": 27.635771999899998,
    "name": "вуліца Філімонава"
  },
  {
    "id": 22,
    "lat": 53.88978085729999,
    "lng": 27.543397357699998,
    "name": "вуліца Льва Талстога"
  },
  {
    "id": 23,
    "lat": 53.842335198799994,
    "lng": 27.504865780300005,
    "name": "вуліца Казінца"
  },
  {
    "id": 24,
    "lat": 53.85325605,
    "lng": 27.440999259999998,
    "name": ""
  },
  {
    "id": 25,
    "lat": 53.8786696431,
    "lng": 27.454253360699997,
    "name": ""
  },
  {
    "id": 26,
    "lat": 53.904063090199976,
    "lng": 27.4330121411,
    "name": ""
  },
  {
    "id": 27,
    "lat": 53.9324426764,
    "lng": 27.6501435346,
    "name": "вуліца Пятра Мсціслаўца"
  },
  {
    "id": 28,
    "lat": 53.91643415789997,
    "lng": 27.632780449200002,
    "name": ""
  },
  {
    "id": 29,
    "lat": 53.912771694500016,
    "lng": 27.426682599999996,
    "name": "Нёманская вуліца"
  },
  {
    "id": 30,
    "lat": 53.90455954179999,
    "lng": 27.4488619689,
    "name": "вуліца Бурдзейнага"
  },
  {
    "id": 31,
    "lat": 53.89185899660001,
    "lng": 27.514091875299997,
    "name": "вуліца Лермантава"
  },
  {
    "id": 32,
    "lat": 53.87016561999999,
    "lng": 27.546561859999997,
    "name": ""
  },
  {
    "id": 33,
    "lat": 53.9275368281,
    "lng": 27.4950195429,
    "name": "вуліца Міхася Лынькова"
  },
  {
    "id": 34,
    "lat": 53.93600922999999,
    "lng": 27.46822779,
    "name": ""
  },
  {
    "id": 35,
    "lat": 53.8685604851,
    "lng": 27.6742160362,
    "name": "Ахоцкі завулак"
  },
  {
    "id": 36,
    "lat": 53.9274563172,
    "lng": 27.669914195899995,
    "name": "вуліца Агінскага"
  },
  {
    "id": 37,
    "lat": 53.925600972499986,
    "lng": 27.475225763299996,
    "name": "вуліца Міхася Лынькова"
  },
  {
    "id": 38,
    "lat": 53.8914565259,
    "lng": 27.6371805549,
    "name": "вуліца Ваўпшасава"
  },
  {
    "id": 39,
    "lat": 53.94087955329999,
    "lng": 27.643200293499998,
    "name": "вуліца Кедышкі"
  },
  {
    "id": 40,
    "lat": 53.9400973802,
    "lng": 27.669058328099997,
    "name": ""
  },
  {
    "id": 41,
    "lat": 53.850217807099995,
    "lng": 27.602620359699998,
    "name": ""
  },
  {
    "id": 42,
    "lat": 53.83759152299999,
    "lng": 27.636075045299997,
    "name": ""
  },
  {
    "id": 43,
    "lat": 53.89924759340001,
    "lng": 27.535414512399996,
    "name": "вуліца Клары Цэткін"
  },
  {
    "id": 44,
    "lat": 53.83288651820001,
    "lng": 27.556452237599995,
    "name": "МКАД"
  },
  {
    "id": 45,
    "lat": 53.928089103699996,
    "lng": 27.419579909999996,
    "name": "МКАД"
  },
  {
    "id": 46,
    "lat": 53.833474455600005,
    "lng": 27.629243092700005,
    "name": "МКАД"
  },
  {
    "id": 47,
    "lat": 53.91817716649999,
    "lng": 27.465544637499995,
    "name": "вуліца Чычурына"
  },
  {
    "id": 48,
    "lat": 53.89050038,
    "lng": 27.56594927,
    "name": ""
  },
  {
    "id": 49,
    "lat": 53.918853902099976,
    "lng": 27.552066776699995,
    "name": "вуліца Даўмана"
  },
  {
    "id": 50,
    "lat": 53.8344855278,
    "lng": 27.648395476999998,
    "name": "МКАД"
  },
  {
    "id": 51,
    "lat": 53.891242909300004,
    "lng": 27.597639212099995,
    "name": ""
  },
  {
    "id": 52,
    "lat": 53.876487826800016,
    "lng": 27.461887690099996,
    "name": "вуліца Максіма Гарэцкага"
  },
  {
    "id": 53,
    "lat": 53.8325677724,
    "lng": 27.600693408699996,
    "name": ""
  },
  {
    "id": 54,
    "lat": 53.934674908,
    "lng": 27.448070024399996,
    "name": ""
  },
  {
    "id": 55,
    "lat": 53.859384253699986,
    "lng": 27.5354896716,
    "name": "2-і Трубны завулак"
  },
  {
    "id": 56,
    "lat": 53.950363888888894,
    "lng": 27.452677777777776,
    "name": ""
  },
  {
    "id": 57,
    "lat": 53.86569169509998,
    "lng": 27.433584451299996,
    "name": "вуліца Сяргея Ясеніна"
  },
  {
    "id": 58,
    "lat": 53.874705482199985,
    "lng": 27.6386785978,
    "name": "вуліца Бехцерава"
  },
  {
    "id": 59,
    "lat": 53.89874835799999,
    "lng": 27.552974470500004,
    "name": "вуліца Гарадскі Вал"
  },
  {
    "id": 60,
    "lat": 53.9015078731,
    "lng": 27.4994810013,
    "name": ""
  },
  {
    "id": 61,
    "lat": 53.932089,
    "lng": 27.645543999999997,
    "name": ""
  },
  {
    "id": 62,
    "lat": 53.85033112349999,
    "lng": 27.492815605899995,
    "name": ""
  },
  {
    "id": 63,
    "lat": 53.8332311502,
    "lng": 27.553238577299997,
    "name": "МКАД"
  },
  {
    "id": 64,
    "lat": 53.8858755332,
    "lng": 27.618232654099998,
    "name": ""
  },
  {
    "id": 65,
    "lat": 53.901367073699994,
    "lng": 27.421925944500003,
    "name": "вуліца Адзінцова"
  },
  {
    "id": 66,
    "lat": 53.89777281389999,
    "lng": 27.502644506499998,
    "name": ""
  },
  {
    "id": 67,
    "lat": 53.83649511250001,
    "lng": 27.553542375999996,
    "name": "завулак Сцебянёва"
  },
  {
    "id": 68,
    "lat": 53.9276505653,
    "lng": 27.4363132791,
    "name": ""
  },
  {
    "id": 69,
    "lat": 53.9410663516,
    "lng": 27.4423702923,
    "name": ""
  },
  {
    "id": 70,
    "lat": 53.905152643200005,
    "lng": 27.512968551700002,
    "name": "вуліца Гусоўскага"
  },
  {
    "id": 71,
    "lat": 53.86877669920001,
    "lng": 27.514410955499997,
    "name": "завулак Вавілава"
  },
  {
    "id": 72,
    "lat": 53.87116856149999,
    "lng": 27.496864709499995,
    "name": "Чыгуначная вуліца"
  },
  {
    "id": 73,
    "lat": 53.86822448359998,
    "lng": 27.627249832899995,
    "name": "вуліца Тухачэўскага"
  },
  {
    "id": 74,
    "lat": 53.84936869209999,
    "lng": 27.6548146325,
    "name": "вуліца Галадзеда"
  },
  {
    "id": 75,
    "lat": 53.94942463979997,
    "lng": 27.6156890427,
    "name": "Лагойскі тракт"
  },
  {
    "id": 76,
    "lat": 53.89684006849998,
    "lng": 27.601027341399995,
    "name": ""
  },
  {
    "id": 77,
    "lat": 53.853186451499994,
    "lng": 27.523392110799996,
    "name": "вуліца Шаблоўскага"
  },
  {
    "id": 78,
    "lat": 53.925053923200004,
    "lng": 27.5970454327,
    "name": "вуліца Сурганава"
  },
  {
    "id": 79,
    "lat": 53.8406693622,
    "lng": 27.5787521858,
    "name": "вуліца Алеся Дудара"
  },
  {
    "id": 80,
    "lat": 53.865137800499994,
    "lng": 27.599496728799995,
    "name": ""
  },
  {
    "id": 81,
    "lat": 53.882624988300016,
    "lng": 27.441933944099997,
    "name": "вуліца Шаранговіча"
  },
  {
    "id": 82,
    "lat": 53.9057857836,
    "lng": 27.5591235139,
    "name": "Зыбіцкая вуліца"
  },
  {
    "id": 83,
    "lat": 53.89706812399998,
    "lng": 27.520781971999998,
    "name": "вуліца Волаха"
  },
  {
    "id": 84,
    "lat": 53.900603244200006,
    "lng": 27.6591877063,
    "name": "вуліца Ваўпшасава"
  },
  {
    "id": 85,
    "lat": 53.935989833800015,
    "lng": 27.6572017587,
    "name": "праспект Незалежнасці"
  },
  {
    "id": 86,
    "lat": 53.8634543468,
    "lng": 27.642285628799996,
    "name": "вуліца Кабушкіна"
  },
  {
    "id": 87,
    "lat": 53.90511377239999,
    "lng": 27.614606820799995,
    "name": "1-ы завулак Мендзялеева"
  },
  {
    "id": 88,
    "lat": 53.89946040779998,
    "lng": 27.5723421305,
    "name": "Першамайская вуліца"
  },
  {
    "id": 89,
    "lat": 53.90651702680001,
    "lng": 27.634537848399997,
    "name": "вуліца Анаева"
  },
  {
    "id": 90,
    "lat": 53.9194209342,
    "lng": 27.603689623199998,
    "name": ""
  },
  {
    "id": 91,
    "lat": 53.924700232899994,
    "lng": 27.561549359699995,
    "name": "вуліца Крапоткіна"
  },
  {
    "id": 92,
    "lat": 53.95198638369999,
    "lng": 27.6064187965,
    "name": "Усходняя вуліца"
  },
  {
    "id": 93,
    "lat": 53.8537811166,
    "lng": 27.532152124999996,
    "name": "2-я вуліца Лошыца"
  },
  {
    "id": 94,
    "lat": 53.92991228789999,
    "lng": 27.5609224335,
    "name": ""
  },
  {
    "id": 95,
    "lat": 53.870281816500004,
    "lng": 27.6185399412,
    "name": "вуліца Васняцова"
  },
  {
    "id": 96,
    "lat": 53.8891101909,
    "lng": 27.650997992899995,
    "name": "1-ы Халмагорскі завулак"
  },
  {
    "id": 97,
    "lat": 53.93406389229999,
    "lng": 27.443024057999995,
    "name": "вуліца Масюкоўшчына"
  },
  {
    "id": 98,
    "lat": 53.88652863379998,
    "lng": 27.6044626098,
    "name": "вуліца Шчарбакова"
  },
  {
    "id": 99,
    "lat": 53.943264403499995,
    "lng": 27.540570838099995,
    "name": "Даўгінаўскі тракт"
  },
  {
    "id": 100,
    "lat": 53.84229637539998,
    "lng": 27.636781254399995,
    "name": "Чырвонаслабодская вуліца"
  },
  {
    "id": 101,
    "lat": 53.926085331500005,
    "lng": 27.541554299799998,
    "name": "Заліўны завулак"
  },
  {
    "id": 102,
    "lat": 53.8969599375,
    "lng": 27.5273541679,
    "name": "вуліца Купрыянава"
  },
  {
    "id": 103,
    "lat": 53.8373062891,
    "lng": 27.515389178599996,
    "name": "МКАД"
  },
  {
    "id": 104,
    "lat": 53.87144755819999,
    "lng": 27.5742837934,
    "name": ""
  },
  {
    "id": 105,
    "lat": 53.85870263659999,
    "lng": 27.538213604699997,
    "name": "вуліца Лейтэнанта Кіжаватава"
  },
  {
    "id": 106,
    "lat": 53.938319556900005,
    "lng": 27.5864092609,
    "name": "вуліца Тургенева"
  },
  {
    "id": 107,
    "lat": 53.87901248640001,
    "lng": 27.4429619274,
    "name": "вуліца Мачульскага"
  },
  {
    "id": 108,
    "lat": 53.885387680099974,
    "lng": 27.6692295988,
    "name": "Барвовая вуліца"
  },
  {
    "id": 109,
    "lat": 53.9200478611,
    "lng": 27.5938976818,
    "name": "праспект Незалежнасці"
  },
  {
    "id": 110,
    "lat": 53.93375387419999,
    "lng": 27.6255167432,
    "name": "вуліца Чайкоўскага"
  },
  {
    "id": 111,
    "lat": 53.9541486517,
    "lng": 27.662659809,
    "name": "Нябесная вуліца"
  },
  {
    "id": 112,
    "lat": 53.94279294129999,
    "lng": 27.590319408099997,
    "name": "Меліярацыйны завулак"
  },
  {
    "id": 113,
    "lat": 53.84614803809998,
    "lng": 27.6585281064,
    "name": "Свіслацкая вуліца"
  },
  {
    "id": 114,
    "lat": 53.87463859349999,
    "lng": 27.538111735499996,
    "name": ""
  },
  {
    "id": 115,
    "lat": 53.94219508999999,
    "lng": 27.4569071,
    "name": ""
  },
  {
    "id": 116,
    "lat": 53.93661957119999,
    "lng": 27.6749758224,
    "name": "МКАД"
  },
  {
    "id": 117,
    "lat": 53.94506490799999,
    "lng": 27.538894049,
    "name": "Даўгінаўскі тракт"
  },
  {
    "id": 118,
    "lat": 53.882378824499995,
    "lng": 27.6636628047,
    "name": ""
  },
  {
    "id": 119,
    "lat": 53.854059918900006,
    "lng": 27.6106070646,
    "name": ""
  },
  {
    "id": 120,
    "lat": 53.92381155849999,
    "lng": 27.499509016199998,
    "name": "2-і Пуцеправодны завулак"
  },
  {
    "id": 121,
    "lat": 53.916316521300004,
    "lng": 27.4754734223,
    "name": ""
  },
  {
    "id": 122,
    "lat": 53.89573947099999,
    "lng": 27.4421331174,
    "name": ""
  },
  {
    "id": 123,
    "lat": 53.9207077405,
    "lng": 27.6728422967,
    "name": ""
  },
  {
    "id": 124,
    "lat": 53.903828784499986,
    "lng": 27.5771717775,
    "name": "Бранявы завулак"
  },
  {
    "id": 125,
    "lat": 53.869332688900016,
    "lng": 27.569989352799997,
    "name": "вуліца Маякоўскага"
  },
  {
    "id": 126,
    "lat": 53.91858552240001,
    "lng": 27.577236966899996,
    "name": "вуліца Веры Харужай"
  },
  {
    "id": 127,
    "lat": 53.9161229519,
    "lng": 27.5033000459,
    "name": "вуліца Альшэўскага"
  },
  {
    "id": 128,
    "lat": 53.889803275499986,
    "lng": 27.5055373587,
    "name": "вуліца Розы Люксембург"
  },
  {
    "id": 129,
    "lat": 53.91290863999998,
    "lng": 27.45176861,
    "name": "летняя терраса"
  },
  {
    "id": 130,
    "lat": 53.9567503761,
    "lng": 27.6091687232,
    "name": "вуліца Гамарніка"
  },
  {
    "id": 131,
    "lat": 53.92981151509997,
    "lng": 27.517051858299997,
    "name": ""
  },
  {
    "id": 132,
    "lat": 53.90366970849999,
    "lng": 27.6259027864,
    "name": "Кубанская вуліца"
  },
  {
    "id": 133,
    "lat": 53.92580295500001,
    "lng": 27.519272288599996,
    "name": ""
  },
  {
    "id": 134,
    "lat": 53.9320737699,
    "lng": 27.5087522209,
    "name": ""
  },
  {
    "id": 135,
    "lat": 53.880788497,
    "lng": 27.540980684899996,
    "name": ""
  },
  {
    "id": 136,
    "lat": 53.92148784159998,
    "lng": 27.601652568299997,
    "name": "вуліца Сурганава"
  },
  {
    "id": 137,
    "lat": 53.94490073179999,
    "lng": 27.6422640834,
    "name": "вуліца Сядых"
  },
  {
    "id": 138,
    "lat": 53.879998853299995,
    "lng": 27.548917841099996,
    "name": ""
  },
  {
    "id": 139,
    "lat": 53.88516630669998,
    "lng": 27.518081610299998,
    "name": "вуліца Папаніна"
  },
  {
    "id": 140,
    "lat": 53.850983893699976,
    "lng": 27.645474391999997,
    "name": "Свіслацкая вуліца"
  },
  {
    "id": 141,
    "lat": 53.84061893660001,
    "lng": 27.5322750289,
    "name": ""
  },
  {
    "id": 142,
    "lat": 53.907003060599976,
    "lng": 27.577376858999997,
    "name": "вуліца Захарава"
  },
  {
    "id": 143,
    "lat": 53.8855865393,
    "lng": 27.5613057306,
    "name": "Магілёўская вуліца"
  },
  {
    "id": 144,
    "lat": 53.848329455499986,
    "lng": 27.594258341,
    "name": "вуліца Дворышчы"
  },
  {
    "id": 145,
    "lat": 53.89867138529999,
    "lng": 27.576404115899997,
    "name": "вуліца Пуліхава"
  },
  {
    "id": 146,
    "lat": 53.88056580649999,
    "lng": 27.529987844499995,
    "name": "Брэст-Літоўская вуліца"
  },
  {
    "id": 147,
    "lat": 53.881396014399996,
    "lng": 27.4950659809,
    "name": "1-ы завулак Акрэсціна/вуліца Кулібіна"
  },
  {
    "id": 148,
    "lat": 53.846038049699985,
    "lng": 27.634596804199997,
    "name": ""
  },
  {
    "id": 149,
    "lat": 53.921057091400016,
    "lng": 27.428148754399995,
    "name": "Нёманская вуліца"
  },
  {
    "id": 150,
    "lat": 53.90183256429998,
    "lng": 27.577592403,
    "name": "Першамайская вуліца"
  },
  {
    "id": 151,
    "lat": 53.89988875820001,
    "lng": 27.4923709585,
    "name": ""
  },
  {
    "id": 152,
    "lat": 53.95345690839999,
    "lng": 27.668528619399996,
    "name": "Авіяцыйная вуліца"
  },
  {
    "id": 153,
    "lat": 53.83418067319999,
    "lng": 27.533210912699996,
    "name": "Р-23"
  },
  {
    "id": 154,
    "lat": 53.89878799119999,
    "lng": 27.648822506899997,
    "name": "вуліца Солтыса"
  },
  {
    "id": 155,
    "lat": 53.873744680600005,
    "lng": 27.4433889615,
    "name": ""
  },
  {
    "id": 156,
    "lat": 53.85973581600001,
    "lng": 27.6349612811,
    "name": "вуліца Шышкіна"
  },
  {
    "id": 157,
    "lat": 53.9344909111,
    "lng": 27.612895810900003,
    "name": "вуліца Кнорына"
  },
  {
    "id": 158,
    "lat": 53.92340568969997,
    "lng": 27.5257724056,
    "name": "праспект Пераможцаў"
  },
  {
    "id": 159,
    "lat": 53.86055940210001,
    "lng": 27.429370358799996,
    "name": "Слабадская вуліца"
  },
  {
    "id": 160,
    "lat": 53.899335949000005,
    "lng": 27.5105068715,
    "name": "Харкаўская вуліца"
  },
  {
    "id": 161,
    "lat": 53.89376165409998,
    "lng": 27.4725779883,
    "name": "вуліца Панамарэнкі"
  },
  {
    "id": 162,
    "lat": 53.93003968719998,
    "lng": 27.5757840167,
    "name": ""
  },
  {
    "id": 163,
    "lat": 53.90952853229999,
    "lng": 27.652861718099995,
    "name": ""
  },
  {
    "id": 164,
    "lat": 53.9455659089,
    "lng": 27.618293645899996,
    "name": ""
  },
  {
    "id": 165,
    "lat": 53.9164378665,
    "lng": 27.5683866724,
    "name": "праспект Машэрава"
  },
  {
    "id": 166,
    "lat": 53.90710680369999,
    "lng": 27.5451551581,
    "name": "Шпалерны завулак"
  },
  {
    "id": 167,
    "lat": 53.951653021499986,
    "lng": 27.6494170571,
    "name": "МКАД"
  },
  {
    "id": 168,
    "lat": 53.89137984029999,
    "lng": 27.558124648399996,
    "name": "вуліца Свярдлова"
  },
  {
    "id": 169,
    "lat": 53.85948547349999,
    "lng": 27.489623693199995,
    "name": ""
  },
  {
    "id": 170,
    "lat": 53.89421943630001,
    "lng": 27.587445459499996,
    "name": "Іванаўская вуліца"
  },
  {
    "id": 171,
    "lat": 53.846803999999985,
    "lng": 27.483558,
    "name": ""
  },
  {
    "id": 172,
    "lat": 53.85285719289998,
    "lng": 27.463483279399995,
    "name": "Курганная вуліца"
  },
  {
    "id": 173,
    "lat": 53.90662694789999,
    "lng": 27.6574424616,
    "name": "завулак Солтыса"
  },
  {
    "id": 174,
    "lat": 53.90949981180001,
    "lng": 27.5546435563,
    "name": ""
  },
  {
    "id": 175,
    "lat": 53.856526992700005,
    "lng": 27.638082444799995,
    "name": "вуліца Кабушкіна"
  },
  {
    "id": 176,
    "lat": 53.90885238759999,
    "lng": 27.483920522499997,
    "name": "вуліца Прытыцкага"
  },
  {
    "id": 177,
    "lat": 53.932889947700005,
    "lng": 27.4781837483,
    "name": "Нарачанская вуліца"
  },
  {
    "id": 178,
    "lat": 53.906124209500014,
    "lng": 27.679229767999995,
    "name": ""
  },
  {
    "id": 179,
    "lat": 53.869191091999994,
    "lng": 27.4736814019,
    "name": ""
  },
  {
    "id": 180,
    "lat": 53.8569797154,
    "lng": 27.4693073779,
    "name": "вуліца Бялецкага"
  },
  {
    "id": 181,
    "lat": 53.84661033479997,
    "lng": 27.600447520999996,
    "name": "вуліца Дворышчы"
  },
  {
    "id": 182,
    "lat": 53.8764571271,
    "lng": 27.6636778962,
    "name": "2-я вуліца Пржавальскага"
  },
  {
    "id": 183,
    "lat": 53.925460232700004,
    "lng": 27.430877687099997,
    "name": "Нёманская вуліца"
  },
  {
    "id": 184,
    "lat": 53.9316107696,
    "lng": 27.647662648799997,
    "name": ""
  },
  {
    "id": 185,
    "lat": 53.907734073800015,
    "lng": 27.4781451976,
    "name": ""
  },
  {
    "id": 186,
    "lat": 53.913535168699994,
    "lng": 27.5614128374,
    "name": "вуліца Максіма Багдановіча"
  },
  {
    "id": 187,
    "lat": 53.925327891499975,
    "lng": 27.490544028899997,
    "name": "8-ы Пуцеправодны завулак"
  },
  {
    "id": 188,
    "lat": 53.844903967600004,
    "lng": 27.5696410864,
    "name": "Ігуменскі тракт"
  },
  {
    "id": 189,
    "lat": 53.90215138729999,
    "lng": 27.5620438505,
    "name": "праспект Незалежнасці"
  },
  {
    "id": 190,
    "lat": 53.88140105910001,
    "lng": 27.639698805399995,
    "name": "вуліца Жылуновіча"
  },
  {
    "id": 191,
    "lat": 53.9406527904,
    "lng": 27.6535741014,
    "name": "вуліца Каліноўскага"
  },
  {
    "id": 192,
    "lat": 53.95118396449999,
    "lng": 27.424930841999995,
    "name": "Сонечная вуліца"
  },
  {
    "id": 193,
    "lat": 53.940723795900006,
    "lng": 27.5600709196,
    "name": "Прыгарадная вуліца"
  },
  {
    "id": 194,
    "lat": 53.902605535899994,
    "lng": 27.490970744499997,
    "name": "вуліца Адоеўскага"
  },
  {
    "id": 195,
    "lat": 53.8591790581,
    "lng": 27.5176774205,
    "name": "вуліца Казінца"
  },
  {
    "id": 196,
    "lat": 53.8647736745,
    "lng": 27.468546298,
    "name": "праспект Газеты Звязда"
  },
  {
    "id": 197,
    "lat": 53.8435728619,
    "lng": 27.646859702599997,
    "name": ""
  },
  {
    "id": 198,
    "lat": 53.87126039,
    "lng": 27.53280449,
    "name": ""
  },
  {
    "id": 199,
    "lat": 53.86604622129998,
    "lng": 27.5561718221,
    "name": "вуліца Ніколы Тэслы"
  },
  {
    "id": 200,
    "lat": 53.84832030370001,
    "lng": 27.4772809266,
    "name": ""
  },
  {
    "id": 201,
    "lat": 53.9260320696,
    "lng": 27.594119831299995,
    "name": "вуліца Сурганава/вуліца Якуба Коласа"
  },
  {
    "id": 202,
    "lat": 53.93679748360001,
    "lng": 27.4553140032,
    "name": "Камайская вуліца"
  },
  {
    "id": 203,
    "lat": 53.840454104200006,
    "lng": 27.6526217907,
    "name": "вуліца Убарэвіча"
  },
  {
    "id": 204,
    "lat": 53.84675535400001,
    "lng": 27.568084639499997,
    "name": ""
  },
  {
    "id": 205,
    "lat": 53.87932956329999,
    "lng": 27.535020233699996,
    "name": "вуліца Чкалава"
  },
  {
    "id": 206,
    "lat": 53.94029972889998,
    "lng": 27.5534454085,
    "name": "Прыгарадная вуліца"
  },
  {
    "id": 207,
    "lat": 53.91198856809999,
    "lng": 27.575937915599997,
    "name": "праспект Машэрава"
  },
  {
    "id": 208,
    "lat": 53.8784409417,
    "lng": 27.4821034955,
    "name": "вуліца Янкі Брыля"
  },
  {
    "id": 209,
    "lat": 53.8857483797,
    "lng": 27.523295876199995,
    "name": "Грушаўская вуліца"
  },
  {
    "id": 210,
    "lat": 53.88053390189999,
    "lng": 27.478616591399998,
    "name": "вуліца Тышкевічаў"
  },
  {
    "id": 211,
    "lat": 53.870782740599985,
    "lng": 27.5922313756,
    "name": "2-і Веласіпедны завулак"
  },
  {
    "id": 212,
    "lat": 53.948043609599985,
    "lng": 27.605490467299997,
    "name": "Усходняя вуліца"
  },
  {
    "id": 213,
    "lat": 53.9190158328,
    "lng": 27.4495983693,
    "name": "вуліца Іосіфа Жыновіча"
  },
  {
    "id": 214,
    "lat": 53.84532931699999,
    "lng": 27.5502006369,
    "name": "вуліца Пірагова"
  },
  {
    "id": 215,
    "lat": 53.9396947009,
    "lng": 27.430748092899996,
    "name": "МКАД"
  },
  {
    "id": 216,
    "lat": 53.9084687614,
    "lng": 27.5932675233,
    "name": "вуліца Платонава"
  },
  {
    "id": 217,
    "lat": 53.88569551030001,
    "lng": 27.6464273204,
    "name": "Пераходная вуліца"
  },
  {
    "id": 218,
    "lat": 53.93196358489998,
    "lng": 27.5712608994,
    "name": "Арлоўская вуліца"
  },
  {
    "id": 219,
    "lat": 53.886104594,
    "lng": 27.4859885691,
    "name": "вуліца Глаголева"
  },
  {
    "id": 220,
    "lat": 53.9528713739,
    "lng": 27.624332177899998,
    "name": "вуліца Сядых"
  },
  {
    "id": 221,
    "lat": 53.9135736374,
    "lng": 27.524308661399996,
    "name": "вуліца Панфілава"
  },
  {
    "id": 222,
    "lat": 53.94116309980001,
    "lng": 27.573231875899996,
    "name": "2-і завулак Мажайскага"
  },
  {
    "id": 223,
    "lat": 53.88441873979998,
    "lng": 27.427346490600005,
    "name": "вуліца Акадэміка Фёдарава"
  },
  {
    "id": 224,
    "lat": 53.8368712635,
    "lng": 27.534767399199996,
    "name": ""
  },
  {
    "id": 225,
    "lat": 53.870582582299996,
    "lng": 27.643122069999997,
    "name": ""
  },
  {
    "id": 226,
    "lat": 53.872096892799995,
    "lng": 27.520166117699997,
    "name": "вуліца Машыністаў"
  },
  {
    "id": 227,
    "lat": 53.937488955699976,
    "lng": 27.642086174999996,
    "name": "вуліца Кедышкі"
  },
  {
    "id": 228,
    "lat": 53.894321531799996,
    "lng": 27.582922847199995,
    "name": "вуліца Пуліхава"
  },
  {
    "id": 229,
    "lat": 53.94439986739999,
    "lng": 27.6676181857,
    "name": ""
  },
  {
    "id": 230,
    "lat": 53.867903614899994,
    "lng": 27.475219034,
    "name": ""
  },
  {
    "id": 231,
    "lat": 53.94062390579999,
    "lng": 27.491836560799996,
    "name": "Пакроўская вуліца"
  },
  {
    "id": 232,
    "lat": 53.86147432470001,
    "lng": 27.506103712799998,
    "name": ""
  },
  {
    "id": 233,
    "lat": 53.926793636499994,
    "lng": 27.606304089999995,
    "name": "вуліца Калініна"
  },
  {
    "id": 234,
    "lat": 53.9479776678,
    "lng": 27.442045391,
    "name": "Запрудная вуліца/МКАД"
  },
  {
    "id": 235,
    "lat": 53.86117994180001,
    "lng": 27.460373593799996,
    "name": "праспект Любімава"
  },
  {
    "id": 236,
    "lat": 53.9078786225,
    "lng": 27.6550786055,
    "name": ""
  },
  {
    "id": 237,
    "lat": 53.937938180299994,
    "lng": 27.4906954895,
    "name": ""
  },
  {
    "id": 238,
    "lat": 53.9483429132,
    "lng": 27.428399260399996,
    "name": "Паркавая вуліца"
  },
  {
    "id": 239,
    "lat": 53.83680611110001,
    "lng": 27.5885903227,
    "name": "вуліца Прушынскіх"
  },
  {
    "id": 240,
    "lat": 53.86633190419998,
    "lng": 27.470229868500002,
    "name": "праспект Газеты Звязда"
  },
  {
    "id": 241,
    "lat": 53.91451890059998,
    "lng": 27.5503872059,
    "name": "Камуністычная вуліца"
  },
  {
    "id": 242,
    "lat": 53.936672691499986,
    "lng": 27.486154097599997,
    "name": ""
  },
  {
    "id": 243,
    "lat": 53.95604068439997,
    "lng": 27.632503011400004,
    "name": "вуліца Цікоцкага"
  },
  {
    "id": 244,
    "lat": 53.89968722,
    "lng": 27.51997013,
    "name": ""
  },
  {
    "id": 245,
    "lat": 53.9348038158,
    "lng": 27.6539791742,
    "name": ""
  },
  {
    "id": 246,
    "lat": 53.91612976199998,
    "lng": 27.449635195899997,
    "name": "вуліца Ляшчынскага"
  },
  {
    "id": 247,
    "lat": 53.94924862429998,
    "lng": 27.450621269299997,
    "name": "праспект Пераможцаў"
  },
  {
    "id": 248,
    "lat": 53.94907333909999,
    "lng": 27.512515868799998,
    "name": "Агародніцкая вуліца"
  },
  {
    "id": 249,
    "lat": 53.880402783499996,
    "lng": 27.532482767199998,
    "name": "Вірская вуліца"
  },
  {
    "id": 250,
    "lat": 53.85654896539999,
    "lng": 27.6126848488,
    "name": ""
  },
  {
    "id": 251,
    "lat": 53.9299419448,
    "lng": 27.485757919499996,
    "name": "вуліца Ціміразева"
  },
  {
    "id": 252,
    "lat": 53.86986687199999,
    "lng": 27.585487111899997,
    "name": "вуліца Сямёнава"
  },
  {
    "id": 253,
    "lat": 53.93885526189999,
    "lng": 27.4822959278,
    "name": "Піянерская вуліца"
  },
  {
    "id": 254,
    "lat": 53.91257658209998,
    "lng": 27.4826785623,
    "name": ""
  },
  {
    "id": 255,
    "lat": 53.89503004099999,
    "lng": 27.6148662566,
    "name": "Перадавая вуліца"
  },
  {
    "id": 256,
    "lat": 53.88870731619999,
    "lng": 27.552694881999997,
    "name": ""
  },
  {
    "id": 257,
    "lat": 53.8830200215,
    "lng": 27.593353550399996,
    "name": "Партызанскі праспект"
  },
  {
    "id": 258,
    "lat": 53.86931747499999,
    "lng": 27.485813703199998,
    "name": "праспект Газеты Праўда"
  },
  {
    "id": 259,
    "lat": 53.9284663498,
    "lng": 27.667242142199996,
    "name": ""
  },
  {
    "id": 260,
    "lat": 53.88750889669997,
    "lng": 27.544034831399998,
    "name": "Вакзальная вуліца/Суражская вуліца"
  },
  {
    "id": 261,
    "lat": 53.92647613349999,
    "lng": 27.655008362099995,
    "name": "Дачны праезд"
  },
  {
    "id": 262,
    "lat": 53.83805140549998,
    "lng": 27.510270740399996,
    "name": "МКАД"
  },
  {
    "id": 263,
    "lat": 53.87730082259999,
    "lng": 27.6162427001,
    "name": "Партызанскі праспект"
  },
  {
    "id": 264,
    "lat": 53.93295143999998,
    "lng": 27.45779223,
    "name": ""
  },
  {
    "id": 265,
    "lat": 53.87924136480001,
    "lng": 27.471859646899997,
    "name": "вуліца Тышкевічаў"
  },
  {
    "id": 266,
    "lat": 53.85633686210001,
    "lng": 27.539073045600002,
    "name": "вуліца Лейтэнанта Кіжаватава"
  },
  {
    "id": 267,
    "lat": 53.9397216217,
    "lng": 27.436120035199995,
    "name": "Вязынская вуліца"
  },
  {
    "id": 268,
    "lat": 53.83577128520001,
    "lng": 27.6419897784,
    "name": "Капыльская вуліца"
  },
  {
    "id": 269,
    "lat": 53.880023159999986,
    "lng": 27.630751679999996,
    "name": ""
  },
  {
    "id": 270,
    "lat": 53.88959378469999,
    "lng": 27.5869990398,
    "name": "вуліца Серафімовіча"
  },
  {
    "id": 271,
    "lat": 53.913744887399986,
    "lng": 27.514002588499995,
    "name": ""
  },
  {
    "id": 272,
    "lat": 53.92032777777778,
    "lng": 27.48275555555555,
    "name": "Парк"
  },
  {
    "id": 273,
    "lat": 53.87464830869998,
    "lng": 27.608164110699995,
    "name": "вуліца Яна Райніса"
  },
  {
    "id": 274,
    "lat": 53.90887847040001,
    "lng": 27.447964059499995,
    "name": ""
  },
  {
    "id": 275,
    "lat": 53.931739348800015,
    "lng": 27.422658749499995,
    "name": "МКАД"
  },
  {
    "id": 276,
    "lat": 53.849463762800006,
    "lng": 27.6472019616,
    "name": "Свіслацкая вуліца"
  },
  {
    "id": 277,
    "lat": 53.9054705265,
    "lng": 27.5934477581,
    "name": "вуліца Казлова"
  },
  {
    "id": 278,
    "lat": 53.84470041000001,
    "lng": 27.546981985499997,
    "name": "вуліца Пірагова"
  },
  {
    "id": 279,
    "lat": 53.955191788099995,
    "lng": 27.5125140623,
    "name": "Нававіленская вуліца"
  },
  {
    "id": 280,
    "lat": 53.93482799169998,
    "lng": 27.668282504,
    "name": "Універсітэцкі праезд"
  },
  {
    "id": 281,
    "lat": 53.886262376899985,
    "lng": 27.6076328016,
    "name": "вуліца Алега Кашавога"
  },
  {
    "id": 282,
    "lat": 53.91579937659999,
    "lng": 27.5284152513,
    "name": "вуліца Гастэлы"
  },
  {
    "id": 283,
    "lat": 53.91432982589999,
    "lng": 27.484081063999998,
    "name": ""
  },
  {
    "id": 284,
    "lat": 53.948968675199986,
    "lng": 27.5360377697,
    "name": "Даўгінаўскі тракт"
  },
  {
    "id": 285,
    "lat": 53.9194702669,
    "lng": 27.467177025499996,
    "name": "праезд Масюкоўшчына"
  },
  {
    "id": 286,
    "lat": 53.84336330419999,
    "lng": 27.574809993899997,
    "name": ""
  },
  {
    "id": 287,
    "lat": 53.917089091499996,
    "lng": 27.544736752799995,
    "name": "праспект Машэрава"
  },
  {
    "id": 288,
    "lat": 53.833375283600006,
    "lng": 27.5948949175,
    "name": "МКАД"
  },
  {
    "id": 289,
    "lat": 53.864765836400004,
    "lng": 27.5229919352,
    "name": "вуліца Казінца"
  },
  {
    "id": 290,
    "lat": 53.8937585222,
    "lng": 27.475388103599997,
    "name": "вуліца Панамарэнкі"
  },
  {
    "id": 291,
    "lat": 53.8563764885,
    "lng": 27.599622379499998,
    "name": ""
  },
  {
    "id": 292,
    "lat": 53.95232273549998,
    "lng": 27.5821291059,
    "name": "Падольская вуліца"
  },
  {
    "id": 293,
    "lat": 53.881357731699985,
    "lng": 27.4858280285,
    "name": "2-і Прылуцкі завулак"
  },
  {
    "id": 294,
    "lat": 53.87065324240001,
    "lng": 27.562348446299996,
    "name": "Лібава-Роменская вуліца"
  },
  {
    "id": 295,
    "lat": 53.921477868499984,
    "lng": 27.527591387100003,
    "name": ""
  },
  {
    "id": 296,
    "lat": 53.924586206200004,
    "lng": 27.504059897499996,
    "name": "праспект Пушкіна"
  },
  {
    "id": 297,
    "lat": 53.90799225369999,
    "lng": 27.5319094149,
    "name": "вуліца Максіма Танка/вуліца Ціміразева"
  },
  {
    "id": 298,
    "lat": 53.89176360089999,
    "lng": 27.570166462500005,
    "name": "Кастрычніцкая вуліца"
  },
  {
    "id": 299,
    "lat": 53.9138789497,
    "lng": 27.6215954917,
    "name": "вуліца Макаёнка"
  },
  {
    "id": 300,
    "lat": 53.86311002990001,
    "lng": 27.5867881709,
    "name": "вуліца Якубава"
  },
  {
    "id": 301,
    "lat": 53.94632604979997,
    "lng": 27.522574218,
    "name": "Нававіленская вуліца"
  },
  {
    "id": 302,
    "lat": 53.87508598999999,
    "lng": 27.473418872999996,
    "name": "Міхалоўская вуліца"
  },
  {
    "id": 303,
    "lat": 53.851264347999994,
    "lng": 27.4534294934,
    "name": "вуліца Сяргея Ясеніна"
  },
  {
    "id": 304,
    "lat": 53.8445745202,
    "lng": 27.505538676000004,
    "name": "вуліца Каржанеўскага"
  },
  {
    "id": 305,
    "lat": 53.8503536846,
    "lng": 27.6075855178,
    "name": "вуліца Малініна"
  },
  {
    "id": 306,
    "lat": 53.89989845429999,
    "lng": 27.487629259099997,
    "name": ""
  },
  {
    "id": 307,
    "lat": 53.942194449599995,
    "lng": 27.526662581,
    "name": "Нававіленская вуліца"
  },
  {
    "id": 308,
    "lat": 53.8364888373,
    "lng": 27.6248519673,
    "name": ""
  },
  {
    "id": 309,
    "lat": 53.90274321799999,
    "lng": 27.533624968499996,
    "name": "вуліца Клары Цэткін"
  },
  {
    "id": 310,
    "lat": 53.8702420815,
    "lng": 27.552351143199996,
    "name": ""
  },
  {
    "id": 311,
    "lat": 53.873810904399996,
    "lng": 27.4557657958,
    "name": "вуліца Юрыя Семянякі"
  },
  {
    "id": 312,
    "lat": 53.90211997099999,
    "lng": 27.584205118399996,
    "name": ""
  },
  {
    "id": 313,
    "lat": 53.954390475899984,
    "lng": 27.453235644800003,
    "name": ""
  },
  {
    "id": 314,
    "lat": 53.843193778799986,
    "lng": 27.476117974699996,
    "name": "вуліца Напалеона Орды"
  },
  {
    "id": 315,
    "lat": 53.92366795009999,
    "lng": 27.591549658599998,
    "name": "вуліца Якуба Коласа"
  },
  {
    "id": 316,
    "lat": 53.871526369899996,
    "lng": 27.608380922600002,
    "name": "вуліца Гараўца"
  },
  {
    "id": 317,
    "lat": 53.927167264299996,
    "lng": 27.432253309299995,
    "name": "Налібоцкая вуліца"
  },
  {
    "id": 318,
    "lat": 53.83944030350002,
    "lng": 27.6079513173,
    "name": "вуліца Карзюкі"
  },
  {
    "id": 319,
    "lat": 53.8832184492,
    "lng": 27.565216333899997,
    "name": "Надзеждзінская вуліца"
  },
  {
    "id": 320,
    "lat": 53.933430626999986,
    "lng": 27.593361028799997,
    "name": "Усходняя вуліца"
  },
  {
    "id": 321,
    "lat": 53.87060041029998,
    "lng": 27.491402462799996,
    "name": ""
  },
  {
    "id": 322,
    "lat": 53.89068947769999,
    "lng": 27.63490249,
    "name": "вуліца Ваўпшасава"
  },
  {
    "id": 323,
    "lat": 53.85656358479999,
    "lng": 27.595758869099996,
    "name": ""
  },
  {
    "id": 324,
    "lat": 53.949084249,
    "lng": 27.6589361303,
    "name": "вуліца Леанарда да Вінчы"
  },
  {
    "id": 325,
    "lat": 53.86657659330001,
    "lng": 27.553357816099997,
    "name": ""
  },
  {
    "id": 326,
    "lat": 53.892248882400004,
    "lng": 27.648630738,
    "name": "2-і Дражненскі завулак"
  },
  {
    "id": 327,
    "lat": 53.938468080399986,
    "lng": 27.6742104627,
    "name": "МКАД"
  },
  {
    "id": 328,
    "lat": 53.83334406259997,
    "lng": 27.6126856759,
    "name": "МКАД"
  },
  {
    "id": 329,
    "lat": 53.835278609,
    "lng": 27.637031353999998,
    "name": ""
  },
  {
    "id": 330,
    "lat": 53.94527900660001,
    "lng": 27.606719463599998,
    "name": "вуліца Олешава"
  },
  {
    "id": 331,
    "lat": 53.886105867899985,
    "lng": 27.4291647139,
    "name": ""
  },
  {
    "id": 332,
    "lat": 53.8577634897,
    "lng": 27.609550889500003,
    "name": "праспект Ракасоўскага"
  },
  {
    "id": 333,
    "lat": 53.851234357200006,
    "lng": 27.441824454399995,
    "name": "вуліца Громава"
  },
  {
    "id": 334,
    "lat": 53.838154239699996,
    "lng": 27.501363511899996,
    "name": ""
  },
  {
    "id": 335,
    "lat": 53.9241710345,
    "lng": 27.5698478258,
    "name": "вуліца Максіма Багдановіча"
  },
  {
    "id": 336,
    "lat": 53.86295300249999,
    "lng": 27.6388584018,
    "name": "вуліца Міхаіла Мармулёва"
  },
  {
    "id": 337,
    "lat": 53.91131632089999,
    "lng": 27.580142096099998,
    "name": ""
  },
  {
    "id": 338,
    "lat": 53.9342891061,
    "lng": 27.6021042667,
    "name": "вуліца Якуба Коласа"
  },
  {
    "id": 339,
    "lat": 53.90226305509999,
    "lng": 27.6120334592,
    "name": "вуліца Фролікава"
  },
  {
    "id": 340,
    "lat": 53.920144225399994,
    "lng": 27.5579981305,
    "name": "вуліца Крапоткіна"
  },
  {
    "id": 341,
    "lat": 53.9443135406,
    "lng": 27.461564867600003,
    "name": "праспект Пераможцаў"
  },
  {
    "id": 342,
    "lat": 53.837426774499995,
    "lng": 27.616100083499997,
    "name": ""
  },
  {
    "id": 343,
    "lat": 53.85102832380001,
    "lng": 27.5062114468,
    "name": ""
  },
  {
    "id": 344,
    "lat": 53.902725606,
    "lng": 27.6535779747,
    "name": "завулак Солтыса"
  },
  {
    "id": 345,
    "lat": 53.866861471800014,
    "lng": 27.530696127799995,
    "name": ""
  },
  {
    "id": 346,
    "lat": 53.930155875800004,
    "lng": 27.4962715373,
    "name": "вуліца Лесі Украінкі"
  },
  {
    "id": 347,
    "lat": 53.89892173680001,
    "lng": 27.453095092499996,
    "name": "вуліца Якубоўскага"
  },
  {
    "id": 348,
    "lat": 53.895684429400006,
    "lng": 27.433979358499997,
    "name": "вуліца Мазурава"
  },
  {
    "id": 349,
    "lat": 53.899217985100016,
    "lng": 27.428862656199996,
    "name": ""
  },
  {
    "id": 350,
    "lat": 53.87247455819999,
    "lng": 27.5675046707,
    "name": "Дзянісаўская вуліца"
  },
  {
    "id": 351,
    "lat": 53.8465645517,
    "lng": 27.641642699299997,
    "name": ""
  },
  {
    "id": 352,
    "lat": 53.91975934050001,
    "lng": 27.678959552399995,
    "name": "Палярная вуліца"
  },
  {
    "id": 353,
    "lat": 53.914813628299996,
    "lng": 27.5323582327,
    "name": "Гвардзейская вуліца"
  },
  {
    "id": 354,
    "lat": 53.898587979599995,
    "lng": 27.6161662897,
    "name": "вуліца Фролікава"
  },
  {
    "id": 355,
    "lat": 53.87442354119999,
    "lng": 27.6746110032,
    "name": "Ахоцкая вуліца"
  },
  {
    "id": 356,
    "lat": 53.88173991209999,
    "lng": 27.515293247899997,
    "name": "Талінская вуліца"
  },
  {
    "id": 357,
    "lat": 53.93598106709998,
    "lng": 27.562903065699995,
    "name": ""
  },
  {
    "id": 358,
    "lat": 53.889374786199994,
    "lng": 27.5499259088,
    "name": "Дружная вуліца"
  },
  {
    "id": 359,
    "lat": 53.8638665207,
    "lng": 27.546852053699997,
    "name": "Брацкая вуліца"
  },
  {
    "id": 360,
    "lat": 53.8710515084,
    "lng": 27.624165094099997,
    "name": "вуліца Карыцкага"
  },
  {
    "id": 361,
    "lat": 53.859917051000004,
    "lng": 27.437572225599997,
    "name": "вуліца Рафіева"
  },
  {
    "id": 362,
    "lat": 53.94042082379998,
    "lng": 27.649855834199997,
    "name": ""
  },
  {
    "id": 363,
    "lat": 53.8500847383,
    "lng": 27.5241193234,
    "name": "Брэсцкая вуліца"
  },
  {
    "id": 364,
    "lat": 53.8708674815,
    "lng": 27.5125398073,
    "name": "вуліца Папова"
  },
  {
    "id": 365,
    "lat": 53.92893727660002,
    "lng": 27.5632166452,
    "name": "Кахоўская вуліца"
  },
  {
    "id": 366,
    "lat": 53.87843837069999,
    "lng": 27.5562162789,
    "name": "вуліца Ляўкова"
  },
  {
    "id": 367,
    "lat": 53.914942197299986,
    "lng": 27.4781130653,
    "name": "вуліца Матусевіча"
  },
  {
    "id": 368,
    "lat": 53.91808131930001,
    "lng": 27.564845540599997,
    "name": "вуліца Максіма Багдановіча"
  },
  {
    "id": 369,
    "lat": 53.9346340461,
    "lng": 27.548140295099998,
    "name": "вуліца Шчадрына"
  },
  {
    "id": 370,
    "lat": 53.8544487165,
    "lng": 27.478557034299996,
    "name": ""
  },
  {
    "id": 371,
    "lat": 53.8598923904,
    "lng": 27.4818294149,
    "name": ""
  },
  {
    "id": 372,
    "lat": 53.8657680316,
    "lng": 27.6258141394,
    "name": "1-ы завулак Грэкава"
  },
  {
    "id": 373,
    "lat": 53.88147112000001,
    "lng": 27.58620559,
    "name": ""
  },
  {
    "id": 374,
    "lat": 53.87055179049998,
    "lng": 27.5413810439,
    "name": "вуліца Ніколы Тэслы"
  },
  {
    "id": 375,
    "lat": 53.9526067192,
    "lng": 27.632606917199997,
    "name": "вуліца Карбышава"
  },
  {
    "id": 376,
    "lat": 53.91780463249999,
    "lng": 27.6253318584,
    "name": "вуліца Макаёнка"
  },
  {
    "id": 377,
    "lat": 53.873141976999996,
    "lng": 27.629277172099997,
    "name": "вуліца Жылуновіча"
  },
  {
    "id": 378,
    "lat": 53.92843092999999,
    "lng": 27.49033387,
    "name": ""
  },
  {
    "id": 379,
    "lat": 53.90609614750001,
    "lng": 27.4983503316,
    "name": ""
  },
  {
    "id": 380,
    "lat": 53.95350816089998,
    "lng": 27.5976928616,
    "name": "4-ы завулак Кальцова"
  },
  {
    "id": 381,
    "lat": 53.888120901099995,
    "lng": 27.428744397099997,
    "name": "вуліца Лабанка"
  },
  {
    "id": 382,
    "lat": 53.866740389099995,
    "lng": 27.466735333199995,
    "name": "вуліца Голубева"
  },
  {
    "id": 383,
    "lat": 53.84711502999997,
    "lng": 27.6025431,
    "name": ""
  },
  {
    "id": 384,
    "lat": 53.86774711939997,
    "lng": 27.6702763785,
    "name": ""
  },
  {
    "id": 385,
    "lat": 53.893053370000004,
    "lng": 27.48753518,
    "name": ""
  },
  {
    "id": 386,
    "lat": 53.926468039999996,
    "lng": 27.46577806,
    "name": "Городок"
  },
  {
    "id": 387,
    "lat": 53.83715458079999,
    "lng": 27.6491411512,
    "name": ""
  },
  {
    "id": 388,
    "lat": 53.911035016599996,
    "lng": 27.4771617376,
    "name": ""
  },
  {
    "id": 389,
    "lat": 53.93779722222222,
    "lng": 27.50234722222222,
    "name": ""
  },
  {
    "id": 390,
    "lat": 53.836828697499996,
    "lng": 27.599102392,
    "name": "вуліца Віктара Турава"
  },
  {
    "id": 391,
    "lat": 53.879722849099984,
    "lng": 27.6786560236,
    "name": "Ангарскі завулак"
  },
  {
    "id": 392,
    "lat": 53.929840948199995,
    "lng": 27.6143631059,
    "name": ""
  },
  {
    "id": 393,
    "lat": 53.9171739115,
    "lng": 27.669810381299996,
    "name": "Высокая вуліца"
  },
  {
    "id": 394,
    "lat": 53.8604725728,
    "lng": 27.5583220265,
    "name": "Паўднёвая магістраль"
  },
  {
    "id": 395,
    "lat": 53.9162416208,
    "lng": 27.603872438000003,
    "name": "вуліца Сурганава"
  },
  {
    "id": 396,
    "lat": 53.93518739449999,
    "lng": 27.5524139942,
    "name": "Сморгаўскі праезд"
  },
  {
    "id": 397,
    "lat": 53.84383532439998,
    "lng": 27.520395503299998,
    "name": "вуліца Каржанеўскага"
  },
  {
    "id": 398,
    "lat": 53.875868598800004,
    "lng": 27.5050371888,
    "name": "Чыгуначная вуліца"
  },
  {
    "id": 399,
    "lat": 53.9272727185,
    "lng": 27.545274828599997,
    "name": ""
  },
  {
    "id": 400,
    "lat": 53.92285015309999,
    "lng": 27.596436849599996,
    "name": "вуліца Багдана Хмяльніцкага"
  },
  {
    "id": 401,
    "lat": 53.90215987509999,
    "lng": 27.615742736299996,
    "name": "Уральская вуліца"
  },
  {
    "id": 402,
    "lat": 53.860794874899995,
    "lng": 27.5494903941,
    "name": "вуліца Жарэса Алфёрава"
  },
  {
    "id": 403,
    "lat": 53.924432161999995,
    "lng": 27.575773490899998,
    "name": "вуліца Кульман"
  },
  {
    "id": 404,
    "lat": 53.954170707900005,
    "lng": 27.5314210796,
    "name": "2-і Марусінскі завулак"
  },
  {
    "id": 405,
    "lat": 53.959338229699995,
    "lng": 27.663354240299995,
    "name": "Авіяцыйная вуліца"
  },
  {
    "id": 406,
    "lat": 53.88211333410001,
    "lng": 27.5254819396,
    "name": "Чыгуначная вуліца"
  },
  {
    "id": 407,
    "lat": 53.8850887676,
    "lng": 27.567323355799996,
    "name": "вуліца Маякоўскага"
  },
  {
    "id": 408,
    "lat": 53.8459639492,
    "lng": 27.5640845517,
    "name": "вуліца Паўла Шпілеўскага/вуліца Язэпа Драздовіча"
  },
  {
    "id": 409,
    "lat": 53.90330926650001,
    "lng": 27.604984488499998,
    "name": "завулак Казлова"
  },
  {
    "id": 410,
    "lat": 53.934070808399994,
    "lng": 27.5420572349,
    "name": "Старавіленскі тракт"
  },
  {
    "id": 411,
    "lat": 53.848141735399984,
    "lng": 27.455831992099995,
    "name": "вуліца Касманаўтаў"
  },
  {
    "id": 412,
    "lat": 53.88770010940001,
    "lng": 27.5794079385,
    "name": ""
  },
  {
    "id": 413,
    "lat": 53.91071064089999,
    "lng": 27.4431593806,
    "name": ""
  },
  {
    "id": 414,
    "lat": 53.89457710000002,
    "lng": 27.57897099,
    "name": ""
  },
  {
    "id": 415,
    "lat": 53.8703006186,
    "lng": 27.6314851586,
    "name": "вуліца Філатава"
  },
  {
    "id": 416,
    "lat": 53.905654403300005,
    "lng": 27.521382305199996,
    "name": "1-ы Загарадны завулак"
  },
  {
    "id": 417,
    "lat": 53.85397647499999,
    "lng": 27.4292067992,
    "name": "Менкоўскі тракт"
  },
  {
    "id": 418,
    "lat": 53.8320820023,
    "lng": 27.458194608999996,
    "name": "Р-1"
  },
  {
    "id": 419,
    "lat": 53.896171490099995,
    "lng": 27.490962435999997,
    "name": "вуліца Янкі Маўра"
  },
  {
    "id": 420,
    "lat": 53.956305782899996,
    "lng": 27.508184298099998,
    "name": "Прыветлівая вуліца"
  }
]
