[
  {
    "id": 1,
    "lat": 53.84558443039998,
    "lng": 27.452092631899998,
    "name": "Слабадская вуліца"
  },
  {
    "id": 2,
    "lat": 53.93075593220001,
    "lng": 27.4329509928,
    "name": ""
  },
  {
    "id": 3,
    "lat": 53.910338544,
    "lng": 27.6726063214,
    "name": "вуліца Карвата"
  },
  {
    "id": 4,
    "lat": 53.933430217599984,
    "lng": 27.615490225099997,
    "name": ""
  },
  {
    "id": 5,
    "lat": 53.940593455699975,
    "lng": 27.4683371268,
    "name": ""
  },
  {
    "id": 6,
    "lat": 53.861504020099986,
    "lng": 27.4485464252,
    "name": "вуліца Бялецкага"
  },
  {
    "id": 7,
    "lat": 53.88558963769998,
    "lng": 27.667009029599996,
    "name": "Ангарскі завулак"
  },
  {
    "id": 8,
    "lat": 53.8432040902,
    "lng": 27.671999535,
    "name": "Свіслацкая вуліца"
  },
  {
    "id": 9,
    "lat": 53.9451488569,
    "lng": 27.671131615599997,
    "name": "Гарадзецкая вуліца"
  },
  {
    "id": 10,
    "lat": 53.915309891199996,
    "lng": 27.500031595499998,
    "name": ""
  },
  {
    "id": 11,
    "lat": 53.890996394899986,
    "lng": 27.646665396699998,
    "name": "Радыяльная вуліца"
  },
  {
    "id": 12,
    "lat": 53.898273617399994,
    "lng": 27.524510466999995,
    "name": "вуліца Волаха"
  },
  {
    "id": 13,
    "lat": 53.909165836199996,
    "lng": 27.5829606419,
    "name": "вуліца Смалячкова"
  },
  {
    "id": 14,
    "lat": 53.849559227899995,
    "lng": 27.451331681199996,
    "name": ""
  },
  {
    "id": 15,
    "lat": 53.884496594299996,
    "lng": 27.599086619099996,
    "name": "Планёрная вуліца"
  },
  {
    "id": 16,
    "lat": 53.93885800000001,
    "lng": 27.522049999999997,
    "name": ""
  },
  {
    "id": 17,
    "lat": 53.87673431820001,
    "lng": 27.4488031287,
    "name": "вуліца Юрыя Семянякі"
  },
  {
    "id": 18,
    "lat": 53.929756992799994,
    "lng": 27.5471571905,
    "name": ""
  },
  {
    "id": 19,
    "lat": 53.83549466799999,
    "lng": 27.5706117063,
    "name": "вуліца Прушынскіх"
  },
  {
    "id": 20,
    "lat": 53.90646583959999,
    "lng": 27.587220695599996,
    "name": "Берасцянская вуліца"
  },
  {
    "id": 21,
    "lat": 53.914231447499986,
    "lng": 27.635771999899998,
    "name": "вуліца Філімонава"
  },
  {
    "id": 22,
    "lat": 53.88978085729999,
    "lng": 27.543397357699998,
    "name": "вуліца Льва Талстога"
  },
  {
    "id": 23,
    "lat": 53.842335198799994,
    "lng": 27.504865780300005,
    "name": "вуліца Казінца"
  },
  {
    "id": 24,
    "lat": 53.85325605,
    "lng": 27.440999259999998,
    "name": ""
  },
  {
    "id": 25,
    "lat": 53.8786696431,
    "lng": 27.454253360699997,
    "name": ""
  },
  {
    "id": 26,
    "lat": 53.904063090199976,
    "lng": 27.4330121411,
    "name": ""
  },
  {
    "id": 27,
    "lat": 53.9324426764,
    "lng": 27.6501435346,
    "name": "вуліца Пятра Мсціслаўца"
  },
  {
    "id": 28,
    "lat": 53.91643415789997,
    "lng": 27.632780449200002,
    "name": ""
  },
  {
    "id": 29,
    "lat": 53.912771694500016,
    "lng": 27.426682599999996,
    "name": "Нёманская вуліца"
  },
  {
    "id": 30,
    "lat": 53.90455954179999,
    "lng": 27.4488619689,
    "name": "вуліца Бурдзейнага"
  },
  {
    "id": 31,
    "lat": 53.89185899660001,
    "lng": 27.514091875299997,
    "name": "вуліца Лермантава"
  },
  {
    "id": 32,
    "lat": 53.87016561999999,
    "lng": 27.546561859999997,
    "name": ""
  },
  {
    "id": 33,
    "lat": 53.9275368281,
    "lng": 27.4950195429,
    "name": "вуліца Міхася Лынькова"
  },
  {
    "id": 34,
    "lat": 53.93600922999999,
    "lng": 27.46822779,
    "name": ""
  },
  {
    "id": 35,
    "lat": 53.8685604851,
    "lng": 27.6742160362,
    "name": "Ахоцкі завулак"
  },
  {
    "id": 36,
    "lat": 53.9274563172,
    "lng": 27.669914195899995,
    "name": "вуліца Агінскага"
  },
  {
    "id": 37,
    "lat": 53.925600972499986,
    "lng": 27.475225763299996,
    "name": "вуліца Міхася Лынькова"
  },
  {
    "id": 38,
    "lat": 53.8914565259,
    "lng": 27.6371805549,
    "name": "вуліца Ваўпшасава"
  },
  {
    "id": 39,
    "lat": 53.94087955329999,
    "lng": 27.643200293499998,
    "name": "вуліца Кедышкі"
  },
  {
    "id": 40,
    "lat": 53.9400973802,
    "lng": 27.669058328099997,
    "name": ""
  },
  {
    "id": 41,
    "lat": 53.850217807099995,
    "lng": 27.602620359699998,
    "name": ""
  },
  {
    "id": 42,
    "lat": 53.83759152299999,
    "lng": 27.636075045299997,
    "name": ""
  },
  {
    "id": 43,
    "lat": 53.89924759340001,
    "lng": 27.535414512399996,
    "name": "вуліца Клары Цэткін"
  },
  {
    "id": 44,
    "lat": 53.83288651820001,
    "lng": 27.556452237599995,
    "name": "МКАД"
  },
  {
    "id": 45,
    "lat": 53.928089103699996,
    "lng": 27.419579909999996,
    "name": "МКАД"
  },
  {
    "id": 46,
    "lat": 53.833474455600005,
    "lng": 27.629243092700005,
    "name": "МКАД"
  },
  {
    "id": 47,
    "lat": 53.91817716649999,
    "lng": 27.465544637499995,
    "name": "вуліца Чычурына"
  },
  {
    "id": 48,
    "lat": 53.89050038,
    "lng": 27.56594927,
    "name": ""
  },
  {
    "id": 49,
    "lat": 53.918853902099976,
    "lng": 27.552066776699995,
    "name": "вуліца Даўмана"
  },
  {
    "id": 50,
    "lat": 53.8344855278,
    "lng": 27.648395476999998,
    "name": "МКАД"
  },
  {
    "id": 51,
    "lat": 53.891242909300004,
    "lng": 27.597639212099995,
    "name": ""
  },
  {
    "id": 52,
    "lat": 53.876487826800016,
    "lng": 27.461887690099996,
    "name": "вуліца Максіма Гарэцкага"
  },
  {
    "id": 53,
    "lat": 53.8325677724,
    "lng": 27.600693408699996,
    "name": ""
  },
  {
    "id": 54,
    "lat": 53.934674908,
    "lng": 27.448070024399996,
    "name": ""
  },
  {
    "id": 55,
    "lat": 53.859384253699986,
    "lng": 27.5354896716,
    "name": "2-і Трубны завулак"
  },
  {
    "id": 56,
    "lat": 53.950363888888894,
    "lng": 27.452677777777776,
    "name": ""
  },
  {
    "id": 57,
    "lat": 53.86569169509998,
    "lng": 27.433584451299996,
    "name": "вуліца Сяргея Ясеніна"
  },
  {
    "id": 58,
    "lat": 53.874705482199985,
    "lng": 27.6386785978,
    "name": "вуліца Бехцерава"
  },
  {
    "id": 59,
    "lat": 53.89874835799999,
    "lng": 27.552974470500004,
    "name": "вуліца Гарадскі Вал"
  },
  {
    "id": 60,
    "lat": 53.9015078731,
    "lng": 27.4994810013,
    "name": ""
  },
  {
    "id": 61,
    "lat": 53.932089,
    "lng": 27.645543999999997,
    "name": ""
  },
  {
    "id": 62,
    "lat": 53.85033112349999,
    "lng": 27.492815605899995,
    "name": ""
  },
  {
    "id": 63,
    "lat": 53.8332311502,
    "lng": 27.553238577299997,
    "name": "МКАД"
  },
  {
    "id": 64,
    "lat": 53.8858755332,
    "lng": 27.618232654099998,
    "name": ""
  },
  {
    "id": 65,
    "lat": 53.901367073699994,
    "lng": 27.421925944500003,
    "name": "вуліца Адзінцова"
  },
  {
    "id": 66,
    "lat": 53.89777281389999,
    "lng": 27.502644506499998,
    "name": ""
  },
  {
    "id": 67,
    "lat": 53.83649511250001,
    "lng": 27.553542375999996,
    "name": "завулак Сцебянёва"
  },
  {
    "id": 68,
    "lat": 53.9276505653,
    "lng": 27.4363132791,
    "name": ""
  },
  {
    "id": 69,
    "lat": 53.9410663516,
    "lng": 27.4423702923,
    "name": ""
  },
  {
    "id": 70,
    "lat": 53.905152643200005,
    "lng": 27.512968551700002,
    "name": "вуліца Гусоўскага"
  },
  {
    "id": 71,
    "lat": 53.86877669920001,
    "lng": 27.514410955499997,
    "name": "завулак Вавілава"
  },
  {
    "id": 72,
    "lat": 53.87116856149999,
    "lng": 27.496864709499995,
    "name": "Чыгуначная вуліца"
  },
  {
    "id": 73,
    "lat": 53.86822448359998,
    "lng": 27.627249832899995,
    "name": "вуліца Тухачэўскага"
  },
  {
    "id": 74,
    "lat": 53.84936869209999,
    "lng": 27.6548146325,
    "name": "вуліца Галадзеда"
  },
  {
    "id": 75,
    "lat": 53.94942463979997,
    "lng": 27.6156890427,
    "name": "Лагойскі тракт"
  },
  {
    "id": 76,
    "lat": 53.89684006849998,
    "lng": 27.601027341399995,
    "name": ""
  },
  {
    "id": 77,
    "lat": 53.853186451499994,
    "lng": 27.523392110799996,
    "name": "вуліца Шаблоўскага"
  },
  {
    "id": 78,
    "lat": 53.925053923200004,
    "lng": 27.5970454327,
    "name": "вуліца Сурганава"
  },
  {
    "id": 79,
    "lat": 53.8406693622,
    "lng": 27.5787521858,
    "name": "вуліца Алеся Дудара"
  },
  {
    "id": 80,
    "lat": 53.865137800499994,
    "lng": 27.599496728799995,
    "name": ""
  },
  {
    "id": 81,
    "lat": 53.882624988300016,
    "lng": 27.441933944099997,
    "name": "вуліца Шаранговіча"
  },
  {
    "id": 82,
    "lat": 53.9057857836,
    "lng": 27.5591235139,
    "name": "Зыбіцкая вуліца"
  },
  {
    "id": 83,
    "lat": 53.89706812399998,
    "lng": 27.520781971999998,
    "name": "вуліца Волаха"
  },
  {
    "id": 84,
    "lat": 53.900603244200006,
    "lng": 27.6591877063,
    "name": "вуліца Ваўпшасава"
  },
  {
    "id": 85,
    "lat": 53.935989833800015,
    "lng": 27.6572017587,
    "name": "праспект Незалежнасці"
  },
  {
    "id": 86,
    "lat": 53.8634543468,
    "lng": 27.642285628799996,
    "name": "вуліца Кабушкіна"
  },
  {
    "id": 87,
    "lat": 53.90511377239999,
    "lng": 27.614606820799995,
    "name": "1-ы завулак Мендзялеева"
  },
  {
    "id": 88,
    "lat": 53.89946040779998,
    "lng": 27.5723421305,
    "name": "Першамайская вуліца"
  },
  {
    "id": 89,
    "lat": 53.90651702680001,
    "lng": 27.634537848399997,
    "name": "вуліца Анаева"
  },
  {
    "id": 90,
    "lat": 53.9194209342,
    "lng": 27.603689623199998,
    "name": ""
  },
  {
    "id": 91,
    "lat": 53.924700232899994,
    "lng": 27.561549359699995,
    "name": "вуліца Крапоткіна"
  },
  {
    "id": 92,
    "lat": 53.95198638369999,
    "lng": 27.6064187965,
    "name": "Усходняя вуліца"
  },
  {
    "id": 93,
    "lat": 53.8537811166,
    "lng": 27.532152124999996,
    "name": "2-я вуліца Лошыца"
  },
  {
    "id": 94,
    "lat": 53.92991228789999,
    "lng": 27.5609224335,
    "name": ""
  },
  {
    "id": 95,
    "lat": 53.870281816500004,
    "lng": 27.6185399412,
    "name": "вуліца Васняцова"
  },
  {
    "id": 96,
    "lat": 53.8891101909,
    "lng": 27.650997992899995,
    "name": "1-ы Халмагорскі завулак"
  },
  {
    "id": 97,
    "lat": 53.93406389229999,
    "lng": 27.443024057999995,
    "name": "вуліца Масюкоўшчына"
  },
  {
    "id": 98,
    "lat": 53.88652863379998,
    "lng": 27.6044626098,
    "name": "вуліца Шчарбакова"
  },
  {
    "id": 99,
    "lat": 53.943264403499995,
    "lng": 27.540570838099995,
    "name": "Даўгінаўскі тракт"
  },
  {
    "id": 100,
    "lat": 53.84229637539998,
    "lng": 27.636781254399995,
    "name": "Чырвонаслабодская вуліца"
  },
  {
    "id": 101,
    "lat": 53.926085331500005,
    "lng": 27.541554299799998,
    "name": "Заліўны завулак"
  },
  {
    "id": 102,
    "lat": 53.8969599375,
    "lng": 27.5273541679,
    "name": "вуліца Купрыянава"
  },
  {
    "id": 103,
    "lat": 53.8373062891,
    "lng": 27.515389178599996,
    "name": "МКАД"
  },
  {
    "id": 104,
    "lat": 53.87144755819999,
    "lng": 27.5742837934,
    "name": ""
  },
  {
    "id": 105,
    "lat": 53.85870263659999,
    "lng": 27.538213604699997,
    "name": "вуліца Лейтэнанта Кіжаватава"
  },
  {
    "id": 106,
    "lat": 53.938319556900005,
    "lng": 27.5864092609,
    "name": "вуліца Тургенева"
  },
  {
    "id": 107,
    "lat": 53.87901248640001,
    "lng": 27.4429619274,
    "name": "вуліца Мачульскага"
  },
  {
    "id": 108,
    "lat": 53.885387680099974,
    "lng": 27.6692295988,
    "name": "Барвовая вуліца"
  },
  {
    "id": 109,
    "lat": 53.9200478611,
    "lng": 27.5938976818,
    "name": "праспект Незалежнасці"
  },
  {
    "id": 110,
    "lat": 53.93375387419999,
    "lng": 27.6255167432,
    "name": "вуліца Чайкоўскага"
  },
  {
    "id": 111,
    "lat": 53.9541486517,
    "lng": 27.662659809,
    "name": "Нябесная вуліца"
  },
  {
    "id": 112,
    "lat": 53.94279294129999,
    "lng": 27.590319408099997,
    "name": "Меліярацыйны завулак"
  },
  {
    "id": 113,
    "lat": 53.84614803809998,
    "lng": 27.6585281064,
    "name": "Свіслацкая вуліца"
  },
  {
    "id": 114,
    "lat": 53.87463859349999,
    "lng": 27.538111735499996,
    "name": ""
  },
  {
    "id": 115,
    "lat": 53.94219508999999,
    "lng": 27.4569071,
    "name": ""
  },
  {
    "id": 116,
    "lat": 53.93661957119999,
    "lng": 27.6749758224,
    "name": "МКАД"
  },
  {
    "id": 117,
    "lat": 53.94506490799999,
    "lng": 27.538894049,
    "name": "Даўгінаўскі тракт"
  },
  {
    "id": 118,
    "lat": 53.882378824499995,
    "lng": 27.6636628047,
    "name": ""
  },
  {
    "id": 119,
    "lat": 53.854059918900006,
    "lng": 27.6106070646,
    "name": ""
  },
  {
    "id": 120,
    "lat": 53.92381155849999,
    "lng": 27.499509016199998,
    "name": "2-і Пуцеправодны завулак"
  },
  {
    "id": 121,
    "lat": 53.916316521300004,
    "lng": 27.4754734223,
    "name": ""
  },
  {
    "id": 122,
    "lat": 53.89573947099999,
    "lng": 27.4421331174,
    "name": ""
  },
  {
    "id": 123,
    "lat": 53.9207077405,
    "lng": 27.6728422967,
    "name": ""
  },
  {
    "id": 124,
    "lat": 53.903828784499986,
    "lng": 27.5771717775,
    "name": "Бранявы завулак"
  },
  {
    "id": 125,
    "lat": 53.869332688900016,
    "lng": 27.569989352799997,
    "name": "вуліца Маякоўскага"
  },
  {
    "id": 126,
    "lat": 53.91858552240001,
    "lng": 27.577236966899996,
    "name": "вуліца Веры Харужай"
  },
  {
    "id": 127,
    "lat": 53.9161229519,
    "lng": 27.5033000459,
    "name": "вуліца Альшэўскага"
  },
  {
    "id": 128,
    "lat": 53.889803275499986,
    "lng": 27.5055373587,
    "name": "вуліца Розы Люксембург"
  },
  {
    "id": 129,
    "lat": 53.91290863999998,
    "lng": 27.45176861,
    "name": "летняя терраса"
  },
  {
    "id": 130,
    "lat": 53.9567503761,
    "lng": 27.6091687232,
    "name": "вуліца Гамарніка"
  },
  {
    "id": 131,
    "lat": 53.92981151509997,
    "lng": 27.517051858299997,
    "name": ""
  },
  {
    "id": 132,
    "lat": 53.90366970849999,
    "lng": 27.6259027864,
    "name": "Кубанская вуліца"
  },
  {
    "id": 133,
    "lat": 53.92580295500001,
    "lng": 27.519272288599996,
    "name": ""
  },
  {
    "id": 134,
    "lat": 53.9320737699,
    "lng": 27.5087522209,
    "name": ""
  },
  {
    "id": 135,
    "lat": 53.880788497,
    "lng": 27.540980684899996,
    "name": ""
  },
  {
    "id": 136,
    "lat": 53.92148784159998,
    "lng": 27.601652568299997,
    "name": "вуліца Сурганава"
  },
  {
    "id": 137,
    "lat": 53.94490073179999,
    "lng": 27.6422640834,
    "name": "вуліца Сядых"
  },
  {
    "id": 138,
    "lat": 53.879998853299995,
    "lng": 27.548917841099996,
    "name": ""
  },
  {
    "id": 139,
    "lat": 53.88516630669998,
    "lng": 27.518081610299998,
    "name": "вуліца Папаніна"
  },
  {
    "id": 140,
    "lat": 53.850983893699976,
    "lng": 27.645474391999997,
    "name": "Свіслацкая вуліца"
  },
  {
    "id": 141,
    "lat": 53.84061893660001,
    "lng": 27.5322750289,
    "name": ""
  },
  {
    "id": 142,
    "lat": 53.907003060599976,
    "lng": 27.577376858999997,
    "name": "вуліца Захарава"
  },
  {
    "id": 143,
    "lat": 53.8855865393,
    "lng": 27.5613057306,
    "name": "Магілёўская вуліца"
  },
  {
    "id": 144,
    "lat": 53.848329455499986,
    "lng": 27.594258341,
    "name": "вуліца Дворышчы"
  },
  {
    "id": 145,
    "lat": 53.89867138529999,
    "lng": 27.576404115899997,
    "name": "вуліца Пуліхава"
  },
  {
    "id": 146,
    "lat": 53.88056580649999,
    "lng": 27.529987844499995,
    "name": "Брэст-Літоўская вуліца"
  },
  {
    "id": 147,
    "lat": 53.881396014399996,
    "lng": 27.4950659809,
    "name": "1-ы завулак Акрэсціна/вуліца Кулібіна"
  },
  {
    "id": 148,
    "lat": 53.846038049699985,
    "lng": 27.634596804199997,
    "name": ""
  },
  {
    "id": 149,
    "lat": 53.921057091400016,
    "lng": 27.428148754399995,
    "name": "Нёманская вуліца"
  },
  {
    "id": 150,
    "lat": 53.90183256429998,
    "lng": 27.577592403,
    "name": "Першамайская вуліца"
  },
  {
    "id": 151,
    "lat": 53.89988875820001,
    "lng": 27.4923709585,
    "name": ""
  },
  {
    "id": 152,
    "lat": 53.95345690839999,
    "lng": 27.668528619399996,
    "name": "Авіяцыйная вуліца"
  },
  {
    "id": 153,
    "lat": 53.83418067319999,
    "lng": 27.533210912699996,
    "name": "Р-23"
  },
  {
    "id": 154,
    "lat": 53.89878799119999,
    "lng": 27.648822506899997,
    "name": "вуліца Солтыса"
  },
  {
    "id": 155,
    "lat": 53.873744680600005,
    "lng": 27.4433889615,
    "name": ""
  },
  {
    "id": 156,
    "lat": 53.85973581600001,
    "lng": 27.6349612811,
    "name": "вуліца Шышкіна"
  },
  {
    "id": 157,
    "lat": 53.9344909111,
    "lng": 27.612895810900003,
    "name": "вуліца Кнорына"
  },
  {
    "id": 158,
    "lat": 53.92340568969997,
    "lng": 27.5257724056,
    "name": "праспект Пераможцаў"
  },
  {
    "id": 159,
    "lat": 53.86055940210001,
    "lng": 27.429370358799996,
    "name": "Слабадская вуліца"
  },
  {
    "id": 160,
    "lat": 53.899335949000005,
    "lng": 27.5105068715,
    "name": "Харкаўская вуліца"
  },
  {
    "id": 161,
    "lat": 53.89376165409998,
    "lng": 27.4725779883,
    "name": "вуліца Панамарэнкі"
  },
  {
    "id": 162,
    "lat": 53.93003968719998,
    "lng": 27.5757840167,
    "name": ""
  },
  {
    "id": 163,
    "lat": 53.90952853229999,
    "lng": 27.652861718099995,
    "name": ""
  },
  {
    "id": 164,
    "lat": 53.9455659089,
    "lng": 27.618293645899996,
    "name": ""
  },
  {
    "id": 165,
    "lat": 53.9164378665,
    "lng": 27.5683866724,
    "name": "праспект Машэрава"
  },
  {
    "id": 166,
    "lat": 53.90710680369999,
    "lng": 27.5451551581,
    "name": "Шпалерны завулак"
  },
  {
    "id": 167,
    "lat": 53.951653021499986,
    "lng": 27.6494170571,
    "name": "МКАД"
  },
  {
    "id": 168,
    "lat": 53.89137984029999,
    "lng": 27.558124648399996,
    "name": "вуліца Свярдлова"
  },
  {
    "id": 169,
    "lat": 53.85948547349999,
    "lng": 27.489623693199995,
    "name": ""
  },
  {
    "id": 170,
    "lat": 53.89421943630001,
    "lng": 27.587445459499996,
    "name": "Іванаўская вуліца"
  },
  {
    "id": 171,
    "lat": 53.846803999999985,
    "lng": 27.483558,
    "name": ""
  },
  {
    "id": 172,
    "lat": 53.85285719289998,
    "lng": 27.463483279399995,
    "name": "Курганная вуліца"
  },
  {
    "id": 173,
    "lat": 53.90662694789999,
    "lng": 27.6574424616,
    "name": "завулак Солтыса"
  },
  {
    "id": 174,
    "lat": 53.90949981180001,
    "lng": 27.5546435563,
    "name": ""
  },
  {
    "id": 175,
    "lat": 53.856526992700005,
    "lng": 27.638082444799995,
    "name": "вуліца Кабушкіна"
  },
  {
    "id": 176,
    "lat": 53.90885238759999,
    "lng": 27.483920522499997,
    "name": "вуліца Прытыцкага"
  },
  {
    "id": 177,
    "lat": 53.932889947700005,
    "lng": 27.4781837483,
    "name": "Нарачанская вуліца"
  },
  {
    "id": 178,
    "lat": 53.906124209500014,
    "lng": 27.679229767999995,
    "name": ""
  },
  {
    "id": 179,
    "lat": 53.869191091999994,
    "lng": 27.4736814019,
    "name": ""
  },
  {
    "id": 180,
    "lat": 53.8569797154,
    "lng": 27.4693073779,
    "name": "вуліца Бялецкага"
  },
  {
    "id": 181,
    "lat": 53.84661033479997,
    "lng": 27.600447520999996,
    "name": "вуліца Дворышчы"
  },
  {
    "id": 182,
    "lat": 53.8764571271,
    "lng": 27.6636778962,
    "name": "2-я вуліца Пржавальскага"
  },
  {
    "id": 183,
    "lat": 53.925460232700004,
    "lng": 27.430877687099997,
    "name": "Нёманская вуліца"
  },
  {
    "id": 184,
    "lat": 53.9316107696,
    "lng": 27.647662648799997,
    "name": ""
  },
  {
    "id": 185,
    "lat": 53.907734073800015,
    "lng": 27.4781451976,
    "name": ""
  },
  {
    "id": 186,
    "lat": 53.913535168699994,
    "lng": 27.5614128374,
    "name": "вуліца Максіма Багдановіча"
  },
  {
    "id": 187,
    "lat": 53.925327891499975,
    "lng": 27.490544028899997,
    "name": "8-ы Пуцеправодны завулак"
  },
  {
    "id": 188,
    "lat": 53.844903967600004,
    "lng": 27.5696410864,
    "name": "Ігуменскі тракт"
  },
  {
    "id": 189,
    "lat": 53.90215138729999,
    "lng": 27.5620438505,
    "name": "праспект Незалежнасці"
  },
  {
    "id": 190,
    "lat": 53.88140105910001,
    "lng": 27.639698805399995,
    "name": "вуліца Жылуновіча"
  },
  {
    "id": 191,
    "lat": 53.9406527904,
    "lng": 27.6535741014,
    "name": "вуліца Каліноўскага"
  },
  {
    "id": 192,
    "lat": 53.95118396449999,
    "lng": 27.424930841999995,
    "name": "Сонечная вуліца"
  },
  {
    "id": 193,
    "lat": 53.940723795900006,
    "lng": 27.5600709196,
    "name": "Прыгарадная вуліца"
  },
  {
    "id": 194,
    "lat": 53.902605535899994,
    "lng": 27.490970744499997,
    "name": "вуліца Адоеўскага"
  },
  {
    "id": 195,
    "lat": 53.8591790581,
    "lng": 27.5176774205,
    "name": "вуліца Казінца"
  },
  {
    "id": 196,
    "lat": 53.8647736745,
    "lng": 27.468546298,
    "name": "праспект Газеты Звязда"
  },
  {
    "id": 197,
    "lat": 53.8435728619,
    "lng": 27.646859702599997,
    "name": ""
  },
  {
    "id": 198,
    "lat": 53.87126039,
    "lng": 27.53280449,
    "name": ""
  },
  {
    "id": 199,
    "lat": 53.86604622129998,
    "lng": 27.5561718221,
    "name": "вуліца Ніколы Тэслы"
  },
  {
    "id": 200,
    "lat": 53.84832030370001,
    "lng": 27.4772809266,
    "name": ""
  },
  {
    "id": 201,
    "lat": 53.9260320696,
    "lng": 27.594119831299995,
    "name": "вуліца Сурганава/вуліца Якуба Коласа"
  },
  {
    "id": 202,
    "lat": 53.93679748360001,
    "lng": 27.4553140032,
    "name": "Камайская вуліца"
  },
  {
    "id": 203,
    "lat": 53.840454104200006,
    "lng": 27.6526217907,
    "name": "вуліца Убарэвіча"
  },
  {
    "id": 204,
    "lat": 53.84675535400001,
    "lng": 27.568084639499997,
    "name": ""
  },
  {
    "id": 205,
    "lat": 53.87932956329999,
    "lng": 27.535020233699996,
    "name": "вуліца Чкалава"
  },
  {
    "id": 206,
    "lat": 53.94029972889998,
    "lng": 27.5534454085,
    "name": "Прыгарадная вуліца"
  },
  {
    "id": 207,
    "lat": 53.91198856809999,
    "lng": 27.575937915599997,
    "name": "праспект Машэрава"
  },
  {
    "id": 208,
    "lat": 53.8784409417,
    "lng": 27.4821034955,
    "name": "вуліца Янкі Брыля"
  },
  {
    "id": 209,
    "lat": 53.8857483797,
    "lng": 27.523295876199995,
    "name": "Грушаўская вуліца"
  },
  {
    "id": 210,
    "lat": 53.88053390189999,
    "lng": 27.478616591399998,
    "name": "вуліца Тышкевічаў"
  },
  {
    "id": 211,
    "lat": 53.870782740599985,
    "lng": 27.5922313756,
    "name": "2-і Веласіпедны завулак"
  },
  {
    "id": 212,
    "lat": 53.948043609599985,
    "lng": 27.605490467299997,
    "name": "Усходняя вуліца"
  },
  {
    "id": 213,
    "lat": 53.9190158328,
    "lng": 27.4495983693,
    "name": "вуліца Іосіфа Жыновіча"
  },
  {
    "id": 214,
    "lat": 53.84532931699999,
    "lng": 27.5502006369,
    "name": "вуліца Пірагова"
  },
  {
    "id": 215,
    "lat": 53.9396947009,
    "lng": 27.430748092899996,
    "name": "МКАД"
  },
  {
    "id": 216,
    "lat": 53.9084687614,
    "lng": 27.5932675233,
    "name": "вуліца Платонава"
  },
  {
    "id": 217,
    "lat": 53.88569551030001,
    "lng": 27.6464273204,
    "name": "Пераходная вуліца"
  },
  {
    "id": 218,
    "lat": 53.93196358489998,
    "lng": 27.5712608994,
    "name": "Арлоўская вуліца"
  },
  {
    "id": 219,
    "lat": 53.886104594,
    "lng": 27.4859885691,
    "name": "вуліца Глаголева"
  },
  {
    "id": 220,
    "lat": 53.9528713739,
    "lng": 27.624332177899998,
    "name": "вуліца Сядых"
  },
  {
    "id": 221,
    "lat": 53.9135736374,
    "lng": 27.524308661399996,
    "name": "вуліца Панфілава"
  },
  {
    "id": 222,
    "lat": 53.94116309980001,
    "lng": 27.573231875899996,
    "name": "2-і завулак Мажайскага"
  },
  {
    "id": 223,
    "lat": 53.88441873979998,
    "lng": 27.427346490600005,
    "name": "вуліца Акадэміка Фёдарава"
  },
  {
    "id": 224,
    "lat": 53.8368712635,
    "lng": 27.534767399199996,
    "name": ""
  },
  {
    "id": 225,
    "lat": 53.870582582299996,
    "lng": 27.643122069999997,
    "name": ""
  },
  {
    "id": 226,
    "lat": 53.872096892799995,
    "lng": 27.520166117699997,
    "name": "вуліца Машыністаў"
  },
  {
    "id": 227,
    "lat": 53.937488955699976,
    "lng": 27.642086174999996,
    "name": "вуліца Кедышкі"
  },
  {
    "id": 228,
    "lat": 53.894321531799996,
    "lng": 27.582922847199995,
    "name": "вуліца Пуліхава"
  },
  {
    "id": 229,
    "lat": 53.94439986739999,
    "lng": 27.6676181857,
    "name": ""
  },
  {
    "id": 230,
    "lat": 53.867903614899994,
    "lng": 27.475219034,
    "name": ""
  },
  {
    "id": 231,
    "lat": 53.94062390579999,
    "lng": 27.491836560799996,
    "name": "Пакроўская вуліца"
  },
  {
    "id": 232,
    "lat": 53.86147432470001,
    "lng": 27.506103712799998,
    "name": ""
  },
  {
    "id": 233,
    "lat": 53.926793636499994,
    "lng": 27.606304089999995,
    "name": "вуліца Калініна"
  },
  {
    "id": 234,
    "lat": 53.9479776678,
    "lng": 27.442045391,
    "name": "Запрудная вуліца/МКАД"
  },
  {
    "id": 235,
    "lat": 53.86117994180001,
    "lng": 27.460373593799996,
    "name": "праспект Любімава"
  },
  {
    "id": 236,
    "lat": 53.9078786225,
    "lng": 27.6550786055,
    "name": ""
  },
  {
    "id": 237,
    "lat": 53.937938180299994,
    "lng": 27.4906954895,
    "name": ""
  },
  {
    "id": 238,
    "lat": 53.9483429132,
    "lng": 27.428399260399996,
    "name": "Паркавая вуліца"
  },
  {
    "id": 239,
    "lat": 53.83680611110001,
    "lng": 27.5885903227,
    "name": "вуліца Прушынскіх"
  },
  {
    "id": 240,
    "lat": 53.86633190419998,
    "lng": 27.470229868500002,
    "name": "праспект Газеты Звязда"
  },
  {
    "id": 241,
    "lat": 53.91451890059998,
    "lng": 27.5503872059,
    "name": "Камуністычная вуліца"
  },
  {
    "id": 242,
    "lat": 53.936672691499986,
    "lng": 27.486154097599997,
    "name": ""
  },
  {
    "id": 243,
    "lat": 53.95604068439997,
    "lng": 27.632503011400004,
    "name": "вуліца Цікоцкага"
  },
  {
    "id": 244,
    "lat": 53.89968722,
    "lng": 27.51997013,
    "name": ""
  },
  {
    "id": 245,
    "lat": 53.9348038158,
    "lng": 27.6539791742,
    "name": ""
  },
  {
    "id": 246,
    "lat": 53.91612976199998,
    "lng": 27.449635195899997,
    "name": "вуліца Ляшчынскага"
  },
  {
    "id": 247,
    "lat": 53.94924862429998,
    "lng": 27.450621269299997,
    "name": "праспект Пераможцаў"
  },
  {
    "id": 248,
    "lat": 53.94907333909999,
    "lng": 27.512515868799998,
    "name": "Агародніцкая вуліца"
  },
  {
    "id": 249,
    "lat": 53.880402783499996,
    "lng": 27.532482767199998,
    "name": "Вірская вуліца"
  },
  {
    "id": 250,
    "lat": 53.85654896539999,
    "lng": 27.6126848488,
    "name": ""
  },
  {
    "id": 251,
    "lat": 53.9299419448,
    "lng": 27.485757919499996,
    "name": "вуліца Ціміразева"
  },
  {
    "id": 252,
    "lat": 53.86986687199999,
    "lng": 27.585487111899997,
    "name": "вуліца Сямёнава"
  },
  {
    "id": 253,
    "lat": 53.93885526189999,
    "lng": 27.4822959278,
    "name": "Піянерская вуліца"
  },
  {
    "id": 254,
    "lat": 53.91257658209998,
    "lng": 27.4826785623,
    "name": ""
  },
  {
    "id": 255,
    "lat": 53.89503004099999,
    "lng": 27.6148662566,
    "name": "Перадавая вуліца"
  },
  {
    "id": 256,
    "lat": 53.88870731619999,
    "lng": 27.552694881999997,
    "name": ""
  },
  {
    "id": 257,
    "lat": 53.8830200215,
    "lng": 27.593353550399996,
    "name": "Партызанскі праспект"
  },
  {
    "id": 258,
    "lat": 53.86931747499999,
    "lng": 27.485813703199998,
    "name": "праспект Газеты Праўда"
  },
  {
    "id": 259,
    "lat": 53.9284663498,
    "lng": 27.667242142199996,
    "name": ""
  },
  {
    "id": 260,
    "lat": 53.88750889669997,
    "lng": 27.544034831399998,
    "name": "Вакзальная вуліца/Суражская вуліца"
  },
  {
    "id": 261,
    "lat": 53.92647613349999,
    "lng": 27.655008362099995,
    "name": "Дачны праезд"
  },
  {
    "id": 262,
    "lat": 53.83805140549998,
    "lng": 27.510270740399996,
    "name": "МКАД"
  },
  {
    "id": 263,
    "lat": 53.87730082259999,
    "lng": 27.6162427001,
    "name": "Партызанскі праспект"
  },
  {
    "id": 264,
    "lat": 53.93295143999998,
    "lng": 27.45779223,
    "name": ""
  },
  {
    "id": 265,
    "lat": 53.87924136480001,
    "lng": 27.471859646899997,
    "name": "вуліца Тышкевічаў"
  },
  {
    "id": 266,
    "lat": 53.85633686210001,
    "lng": 27.539073045600002,
    "name": "вуліца Лейтэнанта Кіжаватава"
  },
  {
    "id": 267,
    "lat": 53.9397216217,
    "lng": 27.436120035199995,
    "name": "Вязынская вуліца"
  },
  {
    "id": 268,
    "lat": 53.83577128520001,
    "lng": 27.6419897784,
    "name": "Капыльская вуліца"
  },
  {
    "id": 269,
    "lat": 53.880023159999986,
    "lng": 27.630751679999996,
    "name": ""
  },
  {
    "id": 270,
    "lat": 53.88959378469999,
    "lng": 27.5869990398,
    "name": "вуліца Серафімовіча"
  },
  {
    "id": 271,
    "lat": 53.913744887399986,
    "lng": 27.514002588499995,
    "name": ""
  },
  {
    "id": 272,
    "lat": 53.92032777777778,
    "lng": 27.48275555555555,
    "name": "Парк"
  },
  {
    "id": 273,
    "lat": 53.87464830869998,
    "lng": 27.608164110699995,
    "name": "вуліца Яна Райніса"
  },
  {
    "id": 274,
    "lat": 53.90887847040001,
    "lng": 27.447964059499995,
    "name": ""
  },
  {
    "id": 275,
    "lat": 53.931739348800015,
    "lng": 27.422658749499995,
    "name": "МКАД"
  },
  {
    "id": 276,
    "lat": 53.849463762800006,
    "lng": 27.6472019616,
    "name": "Свіслацкая вуліца"
  },
  {
    "id": 277,
    "lat": 53.9054705265,
    "lng": 27.5934477581,
    "name": "вуліца Казлова"
  },
  {
    "id": 278,
    "lat": 53.84470041000001,
    "lng": 27.546981985499997,
    "name": "вуліца Пірагова"
  },
  {
    "id": 279,
    "lat": 53.955191788099995,
    "lng": 27.5125140623,
    "name": "Нававіленская вуліца"
  },
  {
    "id": 280,
    "lat": 53.93482799169998,
    "lng": 27.668282504,
    "name": "Універсітэцкі праезд"
  },
  {
    "id": 281,
    "lat": 53.886262376899985,
    "lng": 27.6076328016,
    "name": "вуліца Алега Кашавога"
  },
  {
    "id": 282,
    "lat": 53.91579937659999,
    "lng": 27.5284152513,
    "name": "вуліца Гастэлы"
  },
  {
    "id": 283,
    "lat": 53.91432982589999,
    "lng": 27.484081063999998,
    "name": ""
  },
  {
    "id": 284,
    "lat": 53.948968675199986,
    "lng": 27.5360377697,
    "name": "Даўгінаўскі тракт"
  },
  {
    "id": 285,
    "lat": 53.9194702669,
    "lng": 27.467177025499996,
    "name": "праезд Масюкоўшчына"
  },
  {
    "id": 286,
    "lat": 53.84336330419999,
    "lng": 27.574809993899997,
    "name": ""
  },
  {
    "id": 287,
    "lat": 53.917089091499996,
    "lng": 27.544736752799995,
    "name": "праспект Машэрава"
  },
  {
    "id": 288,
    "lat": 53.833375283600006,
    "lng": 27.5948949175,
    "name": "МКАД"
  },
  {
    "id": 289,
    "lat": 53.864765836400004,
    "lng": 27.5229919352,
    "name": "вуліца Казінца"
  },
  {
    "id": 290,
    "lat": 53.8937585222,
    "lng": 27.475388103599997,
    "name": "вуліца Панамарэнкі"
  },
  {
    "id": 291,
    "lat": 53.8563764885,
    "lng": 27.599622379499998,
    "name": ""
  },
  {
    "id": 292,
    "lat": 53.95232273549998,
    "lng": 27.5821291059,
    "name": "Падольская вуліца"
  },
  {
    "id": 293,
    "lat": 53.881357731699985,
    "lng": 27.4858280285,
    "name": "2-і Прылуцкі завулак"
  },
  {
    "id": 294,
    "lat": 53.87065324240001,
    "lng": 27.562348446299996,
    "name": "Лібава-Роменская вуліца"
  },
  {
    "id": 295,
    "lat": 53.921477868499984,
    "lng": 27.527591387100003,
    "name": ""
  },
  {
    "id": 296,
    "lat": 53.924586206200004,
    "lng": 27.504059897499996,
    "name": "праспект Пушкіна"
  },
  {
    "id": 297,
    "lat": 53.90799225369999,
    "lng": 27.5319094149,
    "name": "вуліца Максіма Танка/вуліца Ціміразева"
  },
  {
    "id": 298,
    "lat": 53.89176360089999,
    "lng": 27.570166462500005,
    "name": "Кастрычніцкая вуліца"
  },
  {
    "id": 299,
    "lat": 53.9138789497,
    "lng": 27.6215954917,
    "name": "вуліца Макаёнка"
  },
  {
    "id": 300,
    "lat": 53.86311002990001,
    "lng": 27.5867881709,
    "name": "вуліца Якубава"
  },
  {
    "id": 301,
    "lat": 53.94632604979997,
    "lng": 27.522574218,
    "name": "Нававіленская вуліца"
  },
  {
    "id": 302,
    "lat": 53.87508598999999,
    "lng": 27.473418872999996,
    "name": "Міхалоўская вуліца"
  },
  {
    "id": 303,
    "lat": 53.851264347999994,
    "lng": 27.4534294934,
    "name": "вуліца Сяргея Ясеніна"
  },
  {
    "id": 304,
    "lat": 53.8445745202,
    "lng": 27.505538676000004,
    "name": "вуліца Каржанеўскага"
  },
  {
    "id": 305,
    "lat": 53.8503536846,
    "lng": 27.6075855178,
    "name": "вуліца Малініна"
  },
  {
    "id": 306,
    "lat": 53.89989845429999,
    "lng": 27.487629259099997,
    "name": ""
  },
  {
    "id": 307,
    "lat": 53.942194449599995,
    "lng": 27.526662581,
    "name": "Нававіленская вуліца"
  },
  {
    "id": 308,
    "lat": 53.8364888373,
    "lng": 27.6248519673,
    "name": ""
  },
  {
    "id": 309,
    "lat": 53.90274321799999,
    "lng": 27.533624968499996,
    "name": "вуліца Клары Цэткін"
  },
  {
    "id": 310,
    "lat": 53.8702420815,
    "lng": 27.552351143199996,
    "name": ""
  },
  {
    "id": 311,
    "lat": 53.873810904399996,
    "lng": 27.4557657958,
    "name": "вуліца Юрыя Семянякі"
  },
  {
    "id": 312,
    "lat": 53.90211997099999,
    "lng": 27.584205118399996,
    "name": ""
  },
  {
    "id": 313,
    "lat": 53.954390475899984,
    "lng": 27.453235644800003,
    "name": ""
  },
  {
    "id": 314,
    "lat": 53.843193778799986,
    "lng": 27.476117974699996,
    "name": "вуліца Напалеона Орды"
  },
  {
    "id": 315,
    "lat": 53.92366795009999,
    "lng": 27.591549658599998,
    "name": "вуліца Якуба Коласа"
  },
  {
    "id": 316,
    "lat": 53.871526369899996,
    "lng": 27.608380922600002,
    "name": "вуліца Гараўца"
  },
  {
    "id": 317,
    "lat": 53.927167264299996,
    "lng": 27.432253309299995,
    "name": "Налібоцкая вуліца"
  },
  {
    "id": 318,
    "lat": 53.83944030350002,
    "lng": 27.6079513173,
    "name": "вуліца Карзюкі"
  },
  {
    "id": 319,
    "lat": 53.8832184492,
    "lng": 27.565216333899997,
    "name": "Надзеждзінская вуліца"
  },
  {
    "id": 320,
    "lat": 53.933430626999986,
    "lng": 27.593361028799997,
    "name": "Усходняя вуліца"
  },
  {
    "id": 321,
    "lat": 53.87060041029998,
    "lng": 27.491402462799996,
    "name": ""
  },
  {
    "id": 322,
    "lat": 53.89068947769999,
    "lng": 27.63490249,
    "name": "вуліца Ваўпшасава"
  },
  {
    "id": 323,
    "lat": 53.85656358479999,
    "lng": 27.595758869099996,
    "name": ""
  },
  {
    "id": 324,
    "lat": 53.949084249,
    "lng": 27.6589361303,
    "name": "вуліца Леанарда да Вінчы"
  },
  {
    "id": 325,
    "lat": 53.86657659330001,
    "lng": 27.553357816099997,
    "name": ""
  },
  {
    "id": 326,
    "lat": 53.892248882400004,
    "lng": 27.648630738,
    "name": "2-і Дражненскі завулак"
  },
  {
    "id": 327,
    "lat": 53.938468080399986,
    "lng": 27.6742104627,
    "name": "МКАД"
  },
  {
    "id": 328,
    "lat": 53.83334406259997,
    "lng": 27.6126856759,
    "name": "МКАД"
  },
  {
    "id": 329,
    "lat": 53.835278609,
    "lng": 27.637031353999998,
    "name": ""
  },
  {
    "id": 330,
    "lat": 53.94527900660001,
    "lng": 27.606719463599998,
    "name": "вуліца Олешава"
  },
  {
    "id": 331,
    "lat": 53.886105867899985,
    "lng": 27.4291647139,
    "name": ""
  },
  {
    "id": 332,
    "lat": 53.8577634897,
    "lng": 27.609550889500003,
    "name": "праспект Ракасоўскага"
  },
  {
    "id": 333,
    "lat": 53.851234357200006,
    "lng": 27.441824454399995,
    "name": "вуліца Громава"
  },
  {
    "id": 334,
    "lat": 53.838154239699996,
    "lng": 27.501363511899996,
    "name": ""
  },
  {
    "id": 335,
    "lat": 53.9241710345,
    "lng": 27.5698478258,
    "name": "вуліца Максіма Багдановіча"
  },
  {
    "id": 336,
    "lat": 53.86295300249999,
    "lng": 27.6388584018,
    "name": "вуліца Міхаіла Мармулёва"
  },
  {
    "id": 337,
    "lat": 53.91131632089999,
    "lng": 27.580142096099998,
    "name": ""
  },
  {
    "id": 338,
    "lat": 53.9342891061,
    "lng": 27.6021042667,
    "name": "вуліца Якуба Коласа"
  },
  {
    "id": 339,
    "lat": 53.90226305509999,
    "lng": 27.6120334592,
    "name": "вуліца Фролікава"
  },
  {
    "id": 340,
    "lat": 53.920144225399994,
    "lng": 27.5579981305,
    "name": "вуліца Крапоткіна"
  },
  {
    "id": 341,
    "lat": 53.9443135406,
    "lng": 27.461564867600003,
    "name": "праспект Пераможцаў"
  },
  {
    "id": 342,
    "lat": 53.837426774499995,
    "lng": 27.616100083499997,
    "name": ""
  },
  {
    "id": 343,
    "lat": 53.85102832380001,
    "lng": 27.5062114468,
    "name": ""
  },
  {
    "id": 344,
    "lat": 53.902725606,
    "lng": 27.6535779747,
    "name": "завулак Солтыса"
  },
  {
    "id": 345,
    "lat": 53.866861471800014,
    "lng": 27.530696127799995,
    "name": ""
  },
  {
    "id": 346,
    "lat": 53.930155875800004,
    "lng": 27.4962715373,
    "name": "вуліца Лесі Украінкі"
  },
  {
    "id": 347,
    "lat": 53.89892173680001,
    "lng": 27.453095092499996,
    "name": "вуліца Якубоўскага"
  },
  {
    "id": 348,
    "lat": 53.895684429400006,
    "lng": 27.433979358499997,
    "name": "вуліца Мазурава"
  },
  {
    "id": 349,
    "lat": 53.899217985100016,
    "lng": 27.428862656199996,
    "name": ""
  },
  {
    "id": 350,
    "lat": 53.87247455819999,
    "lng": 27.5675046707,
    "name": "Дзянісаўская вуліца"
  },
  {
    "id": 351,
    "lat": 53.8465645517,
    "lng": 27.641642699299997,
    "name": ""
  },
  {
    "id": 352,
    "lat": 53.91975934050001,
    "lng": 27.678959552399995,
    "name": "Палярная вуліца"
  },
  {
    "id": 353,
    "lat": 53.914813628299996,
    "lng": 27.5323582327,
    "name": "Гвардзейская вуліца"
  },
  {
    "id": 354,
    "lat": 53.898587979599995,
    "lng": 27.6161662897,
    "name": "вуліца Фролікава"
  },
  {
    "id": 355,
    "lat": 53.87442354119999,
    "lng": 27.6746110032,
    "name": "Ахоцкая вуліца"
  },
  {
    "id": 356,
    "lat": 53.88173991209999,
    "lng": 27.515293247899997,
    "name": "Талінская вуліца"
  },
  {
    "id": 357,
    "lat": 53.93598106709998,
    "lng": 27.562903065699995,
    "name": ""
  },
  {
    "id": 358,
    "lat": 53.889374786199994,
    "lng": 27.5499259088,
    "name": "Дружная вуліца"
  },
  {
    "id": 359,
    "lat": 53.8638665207,
    "lng": 27.546852053699997,
    "name": "Брацкая вуліца"
  },
  {
    "id": 360,
    "lat": 53.8710515084,
    "lng": 27.624165094099997,
    "name": "вуліца Карыцкага"
  },
  {
    "id": 361,
    "lat": 53.859917051000004,
    "lng": 27.437572225599997,
    "name": "вуліца Рафіева"
  },
  {
    "id": 362,
    "lat": 53.94042082379998,
    "lng": 27.649855834199997,
    "name": ""
  },
  {
    "id": 363,
    "lat": 53.8500847383,
    "lng": 27.5241193234,
    "name": "Брэсцкая вуліца"
  },
  {
    "id": 364,
    "lat": 53.8708674815,
    "lng": 27.5125398073,
    "name": "вуліца Папова"
  },
  {
    "id": 365,
    "lat": 53.92893727660002,
    "lng": 27.5632166452,
    "name": "Кахоўская вуліца"
  },
  {
    "id": 366,
    "lat": 53.87843837069999,
    "lng": 27.5562162789,
    "name": "вуліца Ляўкова"
  },
  {
    "id": 367,
    "lat": 53.914942197299986,
    "lng": 27.4781130653,
    "name": "вуліца Матусевіча"
  },
  {
    "id": 368,
    "lat": 53.91808131930001,
    "lng": 27.564845540599997,
    "name": "вуліца Максіма Багдановіча"
  },
  {
    "id": 369,
    "lat": 53.9346340461,
    "lng": 27.548140295099998,
    "name": "вуліца Шчадрына"
  },
  {
    "id": 370,
    "lat": 53.8544487165,
    "lng": 27.478557034299996,
    "name": ""
  },
  {
    "id": 371,
    "lat": 53.8598923904,
    "lng": 27.4818294149,
    "name": ""
  },
  {
    "id": 372,
    "lat": 53.8657680316,
    "lng": 27.6258141394,
    "name": "1-ы завулак Грэкава"
  },
  {
    "id": 373,
    "lat": 53.88147112000001,
    "lng": 27.58620559,
    "name": ""
  },
  {
    "id": 374,
    "lat": 53.87055179049998,
    "lng": 27.5413810439,
    "name": "вуліца Ніколы Тэслы"
  },
  {
    "id": 375,
    "lat": 53.9526067192,
    "lng": 27.632606917199997,
    "name": "вуліца Карбышава"
  },
  {
    "id": 376,
    "lat": 53.91780463249999,
    "lng": 27.6253318584,
    "name": "вуліца Макаёнка"
  },
  {
    "id": 377,
    "lat": 53.873141976999996,
    "lng": 27.629277172099997,
    "name": "вуліца Жылуновіча"
  },
  {
    "id": 378,
    "lat": 53.92843092999999,
    "lng": 27.49033387,
    "name": ""
  },
  {
    "id": 379,
    "lat": 53.90609614750001,
    "lng": 27.4983503316,
    "name": ""
  },
  {
    "id": 380,
    "lat": 53.95350816089998,
    "lng": 27.5976928616,
    "name": "4-ы завулак Кальцова"
  },
  {
    "id": 381,
    "lat": 53.888120901099995,
    "lng": 27.428744397099997,
    "name": "вуліца Лабанка"
  },
  {
    "id": 382,
    "lat": 53.866740389099995,
    "lng": 27.466735333199995,
    "name": "вуліца Голубева"
  },
  {
    "id": 383,
    "lat": 53.84711502999997,
    "lng": 27.6025431,
    "name": ""
  },
  {
    "id": 384,
    "lat": 53.86774711939997,
    "lng": 27.6702763785,
    "name": ""
  },
  {
    "id": 385,
    "lat": 53.893053370000004,
    "lng": 27.48753518,
    "name": ""
  },
  {
    "id": 386,
    "lat": 53.926468039999996,
    "lng": 27.46577806,
    "name": "Городок"
  },
  {
    "id": 387,
    "lat": 53.83715458079999,
    "lng": 27.6491411512,
    "name": ""
  },
  {
    "id": 388,
    "lat": 53.911035016599996,
    "lng": 27.4771617376,
    "name": ""
  },
  {
    "id": 389,
    "lat": 53.93779722222222,
    "lng": 27.50234722222222,
    "name": ""
  },
  {
    "id": 390,
    "lat": 53.836828697499996,
    "lng": 27.599102392,
    "name": "вуліца Віктара Турава"
  },
  {
    "id": 391,
    "lat": 53.879722849099984,
    "lng": 27.6786560236,
    "name": "Ангарскі завулак"
  },
  {
    "id": 392,
    "lat": 53.929840948199995,
    "lng": 27.6143631059,
    "name": ""
  },
  {
    "id": 393,
    "lat": 53.9171739115,
    "lng": 27.669810381299996,
    "name": "Высокая вуліца"
  },
  {
    "id": 394,
    "lat": 53.8604725728,
    "lng": 27.5583220265,
    "name": "Паўднёвая магістраль"
  },
  {
    "id": 395,
    "lat": 53.9162416208,
    "lng": 27.603872438000003,
    "name": "вуліца Сурганава"
  },
  {
    "id": 396,
    "lat": 53.93518739449999,
    "lng": 27.5524139942,
    "name": "Сморгаўскі праезд"
  },
  {
    "id": 397,
    "lat": 53.84383532439998,
    "lng": 27.520395503299998,
    "name": "вуліца Каржанеўскага"
  },
  {
    "id": 398,
    "lat": 53.875868598800004,
    "lng": 27.5050371888,
    "name": "Чыгуначная вуліца"
  },
  {
    "id": 399,
    "lat": 53.9272727185,
    "lng": 27.545274828599997,
    "name": ""
  },
  {
    "id": 400,
    "lat": 53.92285015309999,
    "lng": 27.596436849599996,
    "name": "вуліца Багдана Хмяльніцкага"
  },
  {
    "id": 401,
    "lat": 53.90215987509999,
    "lng": 27.615742736299996,
    "name": "Уральская вуліца"
  },
  {
    "id": 402,
    "lat": 53.860794874899995,
    "lng": 27.5494903941,
    "name": "вуліца Жарэса Алфёрава"
  },
  {
    "id": 403,
    "lat": 53.924432161999995,
    "lng": 27.575773490899998,
    "name": "вуліца Кульман"
  },
  {
    "id": 404,
    "lat": 53.954170707900005,
    "lng": 27.5314210796,
    "name": "2-і Марусінскі завулак"
  },
  {
    "id": 405,
    "lat": 53.959338229699995,
    "lng": 27.663354240299995,
    "name": "Авіяцыйная вуліца"
  },
  {
    "id": 406,
    "lat": 53.88211333410001,
    "lng": 27.5254819396,
    "name": "Чыгуначная вуліца"
  },
  {
    "id": 407,
    "lat": 53.8850887676,
    "lng": 27.567323355799996,
    "name": "вуліца Маякоўскага"
  },
  {
    "id": 408,
    "lat": 53.8459639492,
    "lng": 27.5640845517,
    "name": "вуліца Паўла Шпілеўскага/вуліца Язэпа Драздовіча"
  },
  {
    "id": 409,
    "lat": 53.90330926650001,
    "lng": 27.604984488499998,
    "name": "завулак Казлова"
  },
  {
    "id": 410,
    "lat": 53.934070808399994,
    "lng": 27.5420572349,
    "name": "Старавіленскі тракт"
  },
  {
    "id": 411,
    "lat": 53.848141735399984,
    "lng": 27.455831992099995,
    "name": "вуліца Касманаўтаў"
  },
  {
    "id": 412,
    "lat": 53.88770010940001,
    "lng": 27.5794079385,
    "name": ""
  },
  {
    "id": 413,
    "lat": 53.91071064089999,
    "lng": 27.4431593806,
    "name": ""
  },
  {
    "id": 414,
    "lat": 53.89457710000002,
    "lng": 27.57897099,
    "name": ""
  },
  {
    "id": 415,
    "lat": 53.8703006186,
    "lng": 27.6314851586,
    "name": "вуліца Філатава"
  },
  {
    "id": 416,
    "lat": 53.905654403300005,
    "lng": 27.521382305199996,
    "name": "1-ы Загарадны завулак"
  },
  {
    "id": 417,
    "lat": 53.85397647499999,
    "lng": 27.4292067992,
    "name": "Менкоўскі тракт"
  },
  {
    "id": 418,
    "lat": 53.8320820023,
    "lng": 27.458194608999996,
    "name": "Р-1"
  },
  {
    "id": 419,
    "lat": 53.896171490099995,
    "lng": 27.490962435999997,
    "name": "вуліца Янкі Маўра"
  },
  {
    "id": 420,
    "lat": 53.956305782899996,
    "lng": 27.508184298099998,
    "name": "Прыветлівая вуліца"
  },
  {
    "id": 421,
    "lat": 53.8654789437,
    "lng": 27.584940619899996,
    "name": "вуліца Якубава"
  },
  {
    "id": 422,
    "lat": 53.89118355419999,
    "lng": 27.5898893466,
    "name": "вуліца Станіслаўскага"
  },
  {
    "id": 423,
    "lat": 53.865890799999995,
    "lng": 27.644304408999997,
    "name": "вуліца Кабушкіна"
  },
  {
    "id": 424,
    "lat": 53.933755714499995,
    "lng": 27.507239416199997,
    "name": ""
  },
  {
    "id": 425,
    "lat": 53.9303879633,
    "lng": 27.532328171699998,
    "name": ""
  },
  {
    "id": 426,
    "lat": 53.92375834130001,
    "lng": 27.511340925699997,
    "name": "вуліца Ціміразева"
  },
  {
    "id": 427,
    "lat": 53.927665043100006,
    "lng": 27.611722253,
    "name": "вуліца Талбухіна"
  },
  {
    "id": 428,
    "lat": 53.9312514199,
    "lng": 27.456387748899996,
    "name": "вуліца Масюкоўшчына"
  },
  {
    "id": 429,
    "lat": 53.85179960890001,
    "lng": 27.4367050301,
    "name": "Слабадская вуліца"
  },
  {
    "id": 430,
    "lat": 53.867643548899984,
    "lng": 27.5507054898,
    "name": "вуліца Ніколы Тэслы"
  },
  {
    "id": 431,
    "lat": 53.90250051549999,
    "lng": 27.637088279100002,
    "name": "Радыяльная вуліца"
  },
  {
    "id": 432,
    "lat": 53.92453759009998,
    "lng": 27.5845427408,
    "name": "Цнянская вуліца"
  },
  {
    "id": 433,
    "lat": 53.862946630499984,
    "lng": 27.4465124075,
    "name": "вуліца Рафіева"
  },
  {
    "id": 434,
    "lat": 53.9260976439,
    "lng": 27.553463519099996,
    "name": "вуліца Асіпенка"
  },
  {
    "id": 435,
    "lat": 53.93822357249999,
    "lng": 27.6182766991,
    "name": "Алейная вуліца"
  },
  {
    "id": 436,
    "lat": 53.96001777809999,
    "lng": 27.5418524638,
    "name": "Будслаўская вуліца"
  },
  {
    "id": 437,
    "lat": 53.90289098229999,
    "lng": 27.5802475451,
    "name": "Першамайская вуліца"
  },
  {
    "id": 438,
    "lat": 53.93831263269999,
    "lng": 27.60940129,
    "name": "Наўгародская вуліца"
  },
  {
    "id": 439,
    "lat": 53.853755796999984,
    "lng": 27.6741825141,
    "name": ""
  },
  {
    "id": 440,
    "lat": 53.9114032508,
    "lng": 27.582241193599998,
    "name": "Чырвоназоркавая вуліца"
  },
  {
    "id": 441,
    "lat": 53.95747432929999,
    "lng": 27.6524422298,
    "name": ""
  },
  {
    "id": 442,
    "lat": 53.8680748137,
    "lng": 27.479008356799998,
    "name": ""
  },
  {
    "id": 443,
    "lat": 53.83340618619999,
    "lng": 27.5985608814,
    "name": "МКАД"
  },
  {
    "id": 444,
    "lat": 53.91349647030001,
    "lng": 27.6691265768,
    "name": "вуліца Карвата"
  },
  {
    "id": 445,
    "lat": 53.8728273441,
    "lng": 27.569912469,
    "name": "вуліца Маякоўскага"
  },
  {
    "id": 446,
    "lat": 53.84824538679998,
    "lng": 27.4395250488,
    "name": "МКАД"
  },
  {
    "id": 447,
    "lat": 53.90160270239998,
    "lng": 27.6614139806,
    "name": "вуліца Ваўпшасава"
  },
  {
    "id": 448,
    "lat": 53.84805303089999,
    "lng": 27.433002964899995,
    "name": ""
  },
  {
    "id": 449,
    "lat": 53.87311900000001,
    "lng": 27.558254,
    "name": ""
  },
  {
    "id": 450,
    "lat": 53.85143631039998,
    "lng": 27.576996615600002,
    "name": ""
  },
  {
    "id": 451,
    "lat": 53.9448443686,
    "lng": 27.647772136399997,
    "name": ""
  },
  {
    "id": 452,
    "lat": 53.84952160069999,
    "lng": 27.5451838725,
    "name": "вуліца Асаналіева"
  },
  {
    "id": 453,
    "lat": 53.887353825399984,
    "lng": 27.4466339967,
    "name": ""
  },
  {
    "id": 454,
    "lat": 53.95524341209997,
    "lng": 27.624523837999998,
    "name": "вуліца Карбышава"
  },
  {
    "id": 455,
    "lat": 53.85390246719998,
    "lng": 27.556302197699996,
    "name": "Паўднёвая магістраль"
  },
  {
    "id": 456,
    "lat": 53.91694065559999,
    "lng": 27.4637315142,
    "name": "вуліца Чычурына"
  },
  {
    "id": 457,
    "lat": 53.89004306999999,
    "lng": 27.574884059999995,
    "name": ""
  },
  {
    "id": 458,
    "lat": 53.8711103539,
    "lng": 27.6753307243,
    "name": "Ахоцкая вуліца"
  },
  {
    "id": 459,
    "lat": 53.903891236199996,
    "lng": 27.589117299999998,
    "name": "вуліца Платонава"
  },
  {
    "id": 460,
    "lat": 53.841107144999995,
    "lng": 27.6305896531,
    "name": "Ташкенцкая вуліца"
  },
  {
    "id": 461,
    "lat": 53.90089214379999,
    "lng": 27.581765417399996,
    "name": "вуліца Азгура"
  },
  {
    "id": 462,
    "lat": 53.91005797159999,
    "lng": 27.501669559300005,
    "name": "вуліца Прытыцкага"
  },
  {
    "id": 463,
    "lat": 53.90808253679999,
    "lng": 27.4862890947,
    "name": ""
  },
  {
    "id": 464,
    "lat": 53.92888288299999,
    "lng": 27.565736000299996,
    "name": "Кахоўская вуліца"
  },
  {
    "id": 465,
    "lat": 53.941702964,
    "lng": 27.6470126093,
    "name": "вуліца Каліноўскага"
  },
  {
    "id": 466,
    "lat": 53.87887656099999,
    "lng": 27.655512733699997,
    "name": "Радыяльная вуліца"
  },
  {
    "id": 467,
    "lat": 53.8639856,
    "lng": 27.64979469,
    "name": ""
  },
  {
    "id": 468,
    "lat": 53.91146979999999,
    "lng": 27.53911253,
    "name": ""
  },
  {
    "id": 469,
    "lat": 53.941527948499996,
    "lng": 27.4291224773,
    "name": "Горны завулак"
  },
  {
    "id": 470,
    "lat": 53.907509529399995,
    "lng": 27.647124209800005,
    "name": "Сасновая вуліца"
  },
  {
    "id": 471,
    "lat": 53.90877294609999,
    "lng": 27.629440576099995,
    "name": "Запарожская вуліца"
  },
  {
    "id": 472,
    "lat": 53.92290339950001,
    "lng": 27.432251692099996,
    "name": ""
  },
  {
    "id": 473,
    "lat": 53.88563622630001,
    "lng": 27.6735086808,
    "name": "вуліца Арцёма"
  },
  {
    "id": 474,
    "lat": 53.861876087999974,
    "lng": 27.5261873166,
    "name": "Брэсцкая вуліца"
  },
  {
    "id": 475,
    "lat": 53.8770172552,
    "lng": 27.671089607399995,
    "name": "Сустрэчны завулак"
  },
  {
    "id": 476,
    "lat": 53.85823435356213,
    "lng": 27.502190641962567,
    "name": ""
  },
  {
    "id": 477,
    "lat": 53.849509000000005,
    "lng": 27.665059,
    "name": ""
  },
  {
    "id": 478,
    "lat": 53.93881413350001,
    "lng": 27.6719869986,
    "name": ""
  },
  {
    "id": 479,
    "lat": 53.87478268600001,
    "lng": 27.571002740099996,
    "name": "Палявая вуліца"
  },
  {
    "id": 480,
    "lat": 53.92686331569998,
    "lng": 27.572130827899997,
    "name": "вуліца Максіма Багдановіча"
  },
  {
    "id": 481,
    "lat": 53.85076432709999,
    "lng": 27.429000580399997,
    "name": "Н-24307"
  },
  {
    "id": 482,
    "lat": 53.835957108,
    "lng": 27.462242240999995,
    "name": "Р-1"
  },
  {
    "id": 483,
    "lat": 53.907991968799976,
    "lng": 27.6313526213,
    "name": "вуліца Філімонава"
  },
  {
    "id": 484,
    "lat": 53.911203,
    "lng": 27.546463999999997,
    "name": ""
  },
  {
    "id": 485,
    "lat": 53.89643875679999,
    "lng": 27.642019216599998,
    "name": "Радыяльная вуліца"
  },
  {
    "id": 486,
    "lat": 53.8840387349,
    "lng": 27.5834086487,
    "name": ""
  },
  {
    "id": 487,
    "lat": 53.922103889400006,
    "lng": 27.5819565776,
    "name": "Цнянская вуліца"
  },
  {
    "id": 488,
    "lat": 53.84552175059999,
    "lng": 27.629084151899995,
    "name": ""
  },
  {
    "id": 489,
    "lat": 53.892135932299986,
    "lng": 27.547227595499997,
    "name": "Бабруйская вуліца"
  },
  {
    "id": 490,
    "lat": 53.905981860899985,
    "lng": 27.627339146799997,
    "name": "Уральская вуліца"
  },
  {
    "id": 491,
    "lat": 53.89554999999998,
    "lng": 27.657630555555553,
    "name": ""
  },
  {
    "id": 492,
    "lat": 53.91979199750001,
    "lng": 27.456196555499996,
    "name": "вуліца Аладавых"
  },
  {
    "id": 493,
    "lat": 53.938834027300004,
    "lng": 27.5494590244,
    "name": "4-ы Даўгінаўскі завулак"
  },
  {
    "id": 494,
    "lat": 53.85584959780002,
    "lng": 27.529485075799997,
    "name": "2-і Брэсцкі завулак"
  },
  {
    "id": 495,
    "lat": 53.8754128547,
    "lng": 27.511962412,
    "name": "вуліца Кузьмы Мініна"
  },
  {
    "id": 496,
    "lat": 53.90115910800002,
    "lng": 27.5270136121,
    "name": "Дамашэўскі завулак"
  },
  {
    "id": 497,
    "lat": 53.8562233601,
    "lng": 27.4219934964,
    "name": ""
  },
  {
    "id": 498,
    "lat": 53.8753649217,
    "lng": 27.668808181399996,
    "name": "Алтайскі завулак"
  },
  {
    "id": 499,
    "lat": 53.9149936676,
    "lng": 27.482126867099996,
    "name": "вуліца Матусевіча"
  },
  {
    "id": 500,
    "lat": 53.943112428499994,
    "lng": 27.653989254900004,
    "name": "Усіхсвяцкая вуліца"
  },
  {
    "id": 501,
    "lat": 53.8768493,
    "lng": 27.5306825209,
    "name": "Дэпоўскі завулак"
  },
  {
    "id": 502,
    "lat": 53.8407194301,
    "lng": 27.662691835800004,
    "name": "МКАД"
  },
  {
    "id": 503,
    "lat": 53.88117987439998,
    "lng": 27.580962290499997,
    "name": "Трасцянецкая вуліца"
  },
  {
    "id": 504,
    "lat": 53.92838637739998,
    "lng": 27.6406343645,
    "name": "вуліца Францыска Скарыны"
  },
  {
    "id": 505,
    "lat": 53.84956162130001,
    "lng": 27.563945204399996,
    "name": "вуліца Язэпа Драздовіча"
  },
  {
    "id": 506,
    "lat": 53.87466951670001,
    "lng": 27.567486185699998,
    "name": "Палявая вуліца"
  },
  {
    "id": 507,
    "lat": 53.843346255099995,
    "lng": 27.581779336200004,
    "name": "вуліца Станіслава Манюшкі"
  },
  {
    "id": 508,
    "lat": 53.90280647220002,
    "lng": 27.5108454178,
    "name": "вуліца Верашчагіна"
  },
  {
    "id": 509,
    "lat": 53.8636906942,
    "lng": 27.4255733686,
    "name": "МКАД"
  },
  {
    "id": 510,
    "lat": 53.87925716269999,
    "lng": 27.505280013599997,
    "name": ""
  },
  {
    "id": 511,
    "lat": 53.8508208,
    "lng": 27.638069629999997,
    "name": ""
  },
  {
    "id": 512,
    "lat": 53.90400027319999,
    "lng": 27.631381634199997,
    "name": "Дзвінская вуліца"
  },
  {
    "id": 513,
    "lat": 53.854112903899996,
    "lng": 27.634224248599995,
    "name": "Ташкенцкая вуліца"
  },
  {
    "id": 514,
    "lat": 53.89791,
    "lng": 27.426203,
    "name": ""
  },
  {
    "id": 515,
    "lat": 53.95023672360001,
    "lng": 27.6760123651,
    "name": "Шафарнянская вуліца"
  },
  {
    "id": 516,
    "lat": 53.8956561531,
    "lng": 27.536654209699996,
    "name": "праспект Дзяржынскага"
  },
  {
    "id": 517,
    "lat": 53.888906513100004,
    "lng": 27.583362979899995,
    "name": "вуліца Судмаліса"
  },
  {
    "id": 518,
    "lat": 53.84282446979999,
    "lng": 27.6431288709,
    "name": "1-ы Зарэчны завулак/Зарэчны тупік"
  },
  {
    "id": 519,
    "lat": 53.927280702,
    "lng": 27.556236198399997,
    "name": "бульвар Шаўчэнкі"
  },
  {
    "id": 520,
    "lat": 53.92873099999999,
    "lng": 27.507220999999998,
    "name": ""
  },
  {
    "id": 521,
    "lat": 53.93695025410002,
    "lng": 27.612621983699995,
    "name": "Валгаградская вуліца"
  },
  {
    "id": 522,
    "lat": 53.9236680833,
    "lng": 27.473411259099997,
    "name": "вуліца Міхася Лынькова"
  },
  {
    "id": 523,
    "lat": 53.84479366160001,
    "lng": 27.631001696899997,
    "name": ""
  },
  {
    "id": 524,
    "lat": 53.925514560100005,
    "lng": 27.6385828257,
    "name": ""
  },
  {
    "id": 525,
    "lat": 53.93549196150001,
    "lng": 27.538541747,
    "name": "Наватарская вуліца"
  },
  {
    "id": 526,
    "lat": 53.881010336599985,
    "lng": 27.4297491911,
    "name": "вуліца Шаранговіча"
  },
  {
    "id": 527,
    "lat": 53.90651467449998,
    "lng": 27.6001956251,
    "name": "1-ы Цвёрды завулак"
  },
  {
    "id": 528,
    "lat": 53.86587602459999,
    "lng": 27.448446871899996,
    "name": ""
  },
  {
    "id": 529,
    "lat": 53.86392827999998,
    "lng": 27.668769809999997,
    "name": "Беларусь Партизанская"
  },
  {
    "id": 530,
    "lat": 53.91251474770001,
    "lng": 27.598892778600003,
    "name": "вуліца Платонава"
  },
  {
    "id": 531,
    "lat": 53.92212093429999,
    "lng": 27.4982264354,
    "name": "1-ы Радыятарны завулак"
  },
  {
    "id": 532,
    "lat": 53.935582766500005,
    "lng": 27.4514148703,
    "name": "вуліца Ціміразева"
  },
  {
    "id": 533,
    "lat": 53.90501039549999,
    "lng": 27.550253010099997,
    "name": ""
  },
  {
    "id": 534,
    "lat": 53.905933561600015,
    "lng": 27.5021160676,
    "name": "вуліца Баляслава Берута"
  },
  {
    "id": 535,
    "lat": 53.93591457830001,
    "lng": 27.637998032699997,
    "name": "вуліца Кедышкі"
  },
  {
    "id": 536,
    "lat": 53.8331535396,
    "lng": 27.5909410624,
    "name": "МКАД"
  },
  {
    "id": 537,
    "lat": 53.90510212849998,
    "lng": 27.4779983482,
    "name": ""
  },
  {
    "id": 538,
    "lat": 53.907065975999984,
    "lng": 27.454027510099998,
    "name": "вуліца Ляшчынскага"
  },
  {
    "id": 539,
    "lat": 53.872360432799994,
    "lng": 27.596063822799998,
    "name": ""
  },
  {
    "id": 540,
    "lat": 53.952440476699984,
    "lng": 27.5055452563,
    "name": "Стэфанаўская вуліца"
  },
  {
    "id": 541,
    "lat": 53.904765188800006,
    "lng": 27.4222584942,
    "name": "вуліца Акадэміка Жэбрака"
  },
  {
    "id": 542,
    "lat": 53.8696718868,
    "lng": 27.424809667499996,
    "name": "Альшанская вуліца"
  },
  {
    "id": 543,
    "lat": 53.930505809999985,
    "lng": 27.588523279999997,
    "name": ""
  },
  {
    "id": 544,
    "lat": 53.904556394300016,
    "lng": 27.6083722059,
    "name": "завулак Казлова"
  },
  {
    "id": 545,
    "lat": 53.94342746769998,
    "lng": 27.4699039697,
    "name": "Сёмкаўскі завулак"
  },
  {
    "id": 546,
    "lat": 53.9298584755,
    "lng": 27.624515326599997,
    "name": "Валгаградская вуліца"
  },
  {
    "id": 547,
    "lat": 53.931690211999985,
    "lng": 27.6073941166,
    "name": "завулак Калініна"
  },
  {
    "id": 548,
    "lat": 53.89967244870001,
    "lng": 27.447636834399997,
    "name": "вуліца Адзінцова"
  },
  {
    "id": 549,
    "lat": 53.948093570599994,
    "lng": 27.6279001696,
    "name": ""
  },
  {
    "id": 550,
    "lat": 53.918105991499985,
    "lng": 27.607835532999996,
    "name": ""
  },
  {
    "id": 551,
    "lat": 53.8332494352,
    "lng": 27.577651075599995,
    "name": ""
  },
  {
    "id": 552,
    "lat": 53.94989103839998,
    "lng": 27.629524597999996,
    "name": ""
  },
  {
    "id": 553,
    "lat": 53.938965359899996,
    "lng": 27.475655435299995,
    "name": ""
  },
  {
    "id": 554,
    "lat": 53.83985399379999,
    "lng": 27.6130388563,
    "name": "вуліца Карзюкі"
  },
  {
    "id": 555,
    "lat": 53.8477484657,
    "lng": 27.529815933799995,
    "name": ""
  },
  {
    "id": 556,
    "lat": 53.8535271803,
    "lng": 27.5989231724,
    "name": ""
  },
  {
    "id": 557,
    "lat": 53.9326931903,
    "lng": 27.4909965122,
    "name": ""
  },
  {
    "id": 558,
    "lat": 53.89772470939999,
    "lng": 27.5625522383,
    "name": "вуліца Леніна"
  },
  {
    "id": 559,
    "lat": 53.85911396259999,
    "lng": 27.520571073999996,
    "name": "1-ы Паўднёвы завулак"
  },
  {
    "id": 560,
    "lat": 53.870033232600015,
    "lng": 27.657319527699997,
    "name": "вуліца Арджанікідзэ/вуліца Катоўскага"
  },
  {
    "id": 561,
    "lat": 53.907920844599985,
    "lng": 27.6753034467,
    "name": "вуліца Карвата"
  },
  {
    "id": 562,
    "lat": 53.8660973659,
    "lng": 27.6162679918,
    "name": "вуліца Пляханава"
  },
  {
    "id": 563,
    "lat": 53.91456437320001,
    "lng": 27.573894029,
    "name": "праспект Машэрава"
  },
  {
    "id": 564,
    "lat": 53.92246561450003,
    "lng": 27.426195094199997,
    "name": "Лідская вуліца"
  },
  {
    "id": 565,
    "lat": 53.842117519,
    "lng": 27.560651702399998,
    "name": "вуліца Уладзіслава Сыракомлі"
  },
  {
    "id": 566,
    "lat": 53.86406149449999,
    "lng": 27.4813430475,
    "name": "праспект Газеты Праўда"
  },
  {
    "id": 567,
    "lat": 53.843016730999985,
    "lng": 27.528553931699996,
    "name": ""
  },
  {
    "id": 568,
    "lat": 53.9071036306,
    "lng": 27.619878224299995,
    "name": "вуліца Сталетава"
  },
  {
    "id": 569,
    "lat": 53.87556801969998,
    "lng": 27.5401333499,
    "name": ""
  },
  {
    "id": 570,
    "lat": 53.8983180956,
    "lng": 27.5653089832,
    "name": "вуліца Энгельса"
  },
  {
    "id": 571,
    "lat": 53.890323,
    "lng": 27.556213,
    "name": ""
  },
  {
    "id": 572,
    "lat": 53.91768635779999,
    "lng": 27.573362136799997,
    "name": "вуліца Куйбышава"
  },
  {
    "id": 573,
    "lat": 53.906019325600006,
    "lng": 27.4588439976,
    "name": ""
  },
  {
    "id": 574,
    "lat": 53.855883598099986,
    "lng": 27.6781925215,
    "name": "МКАД"
  },
  {
    "id": 575,
    "lat": 53.841028945599994,
    "lng": 27.5865640085,
    "name": "вуліца Аркадзя Смоліча"
  },
  {
    "id": 576,
    "lat": 53.8474515346,
    "lng": 27.559023891,
    "name": "вуліца Уладзіслава Сыракомлі"
  },
  {
    "id": 577,
    "lat": 53.9139297945,
    "lng": 27.5867750683,
    "name": "бульвар Мулявіна"
  },
  {
    "id": 578,
    "lat": 53.895179486899984,
    "lng": 27.452488555899997,
    "name": "вуліца Якубоўскага"
  },
  {
    "id": 579,
    "lat": 53.928049213200005,
    "lng": 27.4753348216,
    "name": ""
  },
  {
    "id": 580,
    "lat": 53.8541195246,
    "lng": 27.4876135288,
    "name": "вуліца Чурлёніса"
  },
  {
    "id": 581,
    "lat": 53.84475542899999,
    "lng": 27.500258545099996,
    "name": ""
  },
  {
    "id": 582,
    "lat": 53.86241762420001,
    "lng": 27.599783147,
    "name": ""
  },
  {
    "id": 583,
    "lat": 53.909393335900006,
    "lng": 27.569967610999996,
    "name": "Камуністычная вуліца"
  },
  {
    "id": 584,
    "lat": 53.930636013099985,
    "lng": 27.5542554952,
    "name": "вуліца Азізава"
  },
  {
    "id": 585,
    "lat": 53.875818904000006,
    "lng": 27.4705162103,
    "name": "Міхалоўская вуліца"
  },
  {
    "id": 586,
    "lat": 53.9320878422,
    "lng": 27.555669417300003,
    "name": "Арлоўская вуліца"
  },
  {
    "id": 587,
    "lat": 53.85534055219999,
    "lng": 27.4448443846,
    "name": "вуліца Сяргея Ясеніна"
  },
  {
    "id": 588,
    "lat": 53.95669565599999,
    "lng": 27.587874538699996,
    "name": "Лучайская вуліца"
  },
  {
    "id": 589,
    "lat": 53.92774408799997,
    "lng": 27.4926695515,
    "name": "вуліца Міхася Лынькова"
  },
  {
    "id": 590,
    "lat": 53.9346349383,
    "lng": 27.634591722899998,
    "name": "вуліца Кедышкі"
  },
  {
    "id": 591,
    "lat": 53.859874849899995,
    "lng": 27.589610838399995,
    "name": "вуліца Якубава"
  },
  {
    "id": 592,
    "lat": 53.93351638039999,
    "lng": 27.557183304599995,
    "name": "4-ы Арлоўскі завулак"
  },
  {
    "id": 593,
    "lat": 53.89052927650001,
    "lng": 27.537570165999995,
    "name": "вуліца Фабрыцыуса"
  },
  {
    "id": 594,
    "lat": 53.89009521719999,
    "lng": 27.425579327200005,
    "name": ""
  },
  {
    "id": 595,
    "lat": 53.86772535949999,
    "lng": 27.525850820399995,
    "name": "Брылеўская вуліца"
  },
  {
    "id": 596,
    "lat": 53.958792178900005,
    "lng": 27.6247647438,
    "name": ""
  },
  {
    "id": 597,
    "lat": 53.8783606424,
    "lng": 27.644687685499996,
    "name": ""
  },
  {
    "id": 598,
    "lat": 53.87273677830001,
    "lng": 27.6065260736,
    "name": "вуліца Гараўца"
  },
  {
    "id": 599,
    "lat": 53.8678485586,
    "lng": 27.4257391493,
    "name": "Альшанская вуліца"
  },
  {
    "id": 600,
    "lat": 53.833565148,
    "lng": 27.548720051199997,
    "name": "МКАД"
  },
  {
    "id": 601,
    "lat": 53.958205290600006,
    "lng": 27.612322557199995,
    "name": ""
  },
  {
    "id": 602,
    "lat": 53.94865055529999,
    "lng": 27.423611449,
    "name": "Р-28"
  },
  {
    "id": 603,
    "lat": 53.88459521239998,
    "lng": 27.4956409574,
    "name": "2-і Прылуцкі завулак"
  },
  {
    "id": 604,
    "lat": 53.923185587799985,
    "lng": 27.4888224784,
    "name": "вуліца Альшэўскага"
  },
  {
    "id": 605,
    "lat": 53.8496093467,
    "lng": 27.5521493539,
    "name": "вуліца Сярова"
  },
  {
    "id": 606,
    "lat": 53.9579380717,
    "lng": 27.5473451144,
    "name": "вуліца Выгоцкага"
  },
  {
    "id": 607,
    "lat": 53.94288089099999,
    "lng": 27.4882008545,
    "name": "Ціхая вуліца"
  },
  {
    "id": 608,
    "lat": 53.940831071799984,
    "lng": 27.4332947034,
    "name": ""
  },
  {
    "id": 609,
    "lat": 53.87303426799999,
    "lng": 27.6715891339,
    "name": "Байкальская вуліца"
  },
  {
    "id": 610,
    "lat": 53.85017026810001,
    "lng": 27.487369152599996,
    "name": ""
  },
  {
    "id": 611,
    "lat": 53.88292402709999,
    "lng": 27.642671822199997,
    "name": ""
  },
  {
    "id": 612,
    "lat": 53.8353539316,
    "lng": 27.608500826699995,
    "name": ""
  },
  {
    "id": 613,
    "lat": 53.87079775789999,
    "lng": 27.4591303922,
    "name": "вуліца Юрыя Семянякі"
  },
  {
    "id": 614,
    "lat": 53.89896650879997,
    "lng": 27.5447943172,
    "name": "вуліца Мяснікова"
  },
  {
    "id": 615,
    "lat": 53.9261404073,
    "lng": 27.565947511899996,
    "name": ""
  },
  {
    "id": 616,
    "lat": 53.9468481915,
    "lng": 27.637790436199996,
    "name": ""
  },
  {
    "id": 617,
    "lat": 53.86508276649998,
    "lng": 27.6730172545,
    "name": ""
  },
  {
    "id": 618,
    "lat": 53.90469379979999,
    "lng": 27.663898140499995,
    "name": "Геалагічны праезд"
  },
  {
    "id": 619,
    "lat": 53.948036335999994,
    "lng": 27.610341148799996,
    "name": "Паліграфічная вуліца"
  },
  {
    "id": 620,
    "lat": 53.9190147956,
    "lng": 27.676052548900003,
    "name": "Балотная вуліца"
  },
  {
    "id": 621,
    "lat": 53.9530475283,
    "lng": 27.672356622399995,
    "name": "Лясная вуліца"
  },
  {
    "id": 622,
    "lat": 53.939158698199996,
    "lng": 27.580937386399995,
    "name": "вуліца Корш-Сабліна"
  },
  {
    "id": 623,
    "lat": 53.95962073319999,
    "lng": 27.604956718899995,
    "name": ""
  },
  {
    "id": 624,
    "lat": 53.921065460099996,
    "lng": 27.642022515599997,
    "name": "вуліца Валенція Ваньковіча"
  },
  {
    "id": 625,
    "lat": 53.913579340000005,
    "lng": 27.59192593,
    "name": ""
  },
  {
    "id": 626,
    "lat": 53.86667130840001,
    "lng": 27.6619577696,
    "name": "вуліца Сядова"
  },
  {
    "id": 627,
    "lat": 53.849654755700016,
    "lng": 27.498623473599995,
    "name": ""
  },
  {
    "id": 628,
    "lat": 53.913673425499994,
    "lng": 27.4869192393,
    "name": "вуліца Данілы Сердзіча"
  },
  {
    "id": 629,
    "lat": 53.8408570835,
    "lng": 27.471203114599998,
    "name": ""
  },
  {
    "id": 630,
    "lat": 53.94245141900001,
    "lng": 27.676991122399997,
    "name": ""
  },
  {
    "id": 631,
    "lat": 53.87708646690002,
    "lng": 27.5090675711,
    "name": "Дубравінская вуліца"
  },
  {
    "id": 632,
    "lat": 53.8399667334,
    "lng": 27.6456826626,
    "name": ""
  },
  {
    "id": 633,
    "lat": 53.92338033160001,
    "lng": 27.587132310799998,
    "name": "Беламорская вуліца"
  },
  {
    "id": 634,
    "lat": 53.935416729999986,
    "lng": 27.521074489999997,
    "name": ""
  },
  {
    "id": 635,
    "lat": 53.85977705900001,
    "lng": 27.572054387099996,
    "name": "Барадзінская вуліца/вуліца Маякоўскага"
  },
  {
    "id": 636,
    "lat": 53.86801305449999,
    "lng": 27.6426496623,
    "name": "завулак Кабушкіна"
  },
  {
    "id": 637,
    "lat": 53.89323129779998,
    "lng": 27.495000281499998,
    "name": ""
  },
  {
    "id": 638,
    "lat": 53.9222649307,
    "lng": 27.5170812307,
    "name": "Рэспубліканская вуліца"
  },
  {
    "id": 639,
    "lat": 53.9448731555,
    "lng": 27.426117141699997,
    "name": "Садовая вуліца"
  },
  {
    "id": 640,
    "lat": 53.949254964500014,
    "lng": 27.6321730556,
    "name": "вуліца Сядых"
  },
  {
    "id": 641,
    "lat": 53.94602360829998,
    "lng": 27.584980152999997,
    "name": "2-і Тульскі завулак"
  },
  {
    "id": 642,
    "lat": 53.94967930839999,
    "lng": 27.420205330199998,
    "name": "Вакзальная вуліца"
  },
  {
    "id": 643,
    "lat": 53.937971359399995,
    "lng": 27.4783481726,
    "name": "праспект Пераможцаў"
  },
  {
    "id": 644,
    "lat": 53.89569740249999,
    "lng": 27.504136826999996,
    "name": "Бетонны праезд"
  },
  {
    "id": 645,
    "lat": 53.9076927097,
    "lng": 27.427842240299995,
    "name": ""
  },
  {
    "id": 646,
    "lat": 53.94822722020002,
    "lng": 27.6667539311,
    "name": ""
  },
  {
    "id": 647,
    "lat": 53.88126773759999,
    "lng": 27.5006670556,
    "name": "праспект Дзяржынскага"
  },
  {
    "id": 648,
    "lat": 53.85604444444444,
    "lng": 27.60321111111111,
    "name": ""
  },
  {
    "id": 649,
    "lat": 53.85841825359998,
    "lng": 27.594131075199996,
    "name": ""
  },
  {
    "id": 650,
    "lat": 53.8944769217,
    "lng": 27.5725197827,
    "name": "Казарменны завулак"
  },
  {
    "id": 651,
    "lat": 53.9547023258,
    "lng": 27.506390535799998,
    "name": "Прыветлівая вуліца"
  },
  {
    "id": 652,
    "lat": 53.87311443779999,
    "lng": 27.4535746846,
    "name": "вуліца Маршала Лосіка"
  },
  {
    "id": 653,
    "lat": 53.889261179299986,
    "lng": 27.526885978399996,
    "name": "1-ы Возніцкі завулак"
  },
  {
    "id": 654,
    "lat": 53.893771188500004,
    "lng": 27.468022627999996,
    "name": "вуліца Панамарэнкі"
  },
  {
    "id": 655,
    "lat": 53.8666266944,
    "lng": 27.483913113499998,
    "name": "праспект Газеты Праўда"
  },
  {
    "id": 656,
    "lat": 53.83498550069999,
    "lng": 27.6458251302,
    "name": "вуліца Убарэвіча"
  },
  {
    "id": 657,
    "lat": 53.918630975199996,
    "lng": 27.672378145399996,
    "name": "Геалагічная вуліца"
  },
  {
    "id": 658,
    "lat": 53.93108866849999,
    "lng": 27.6387581885,
    "name": "праспект Незалежнасці"
  },
  {
    "id": 659,
    "lat": 53.921812749999994,
    "lng": 27.467829669999997,
    "name": "Улица Степана Злобина"
  },
  {
    "id": 660,
    "lat": 53.86276563820001,
    "lng": 27.442910024499998,
    "name": "вуліца Сяргея Ясеніна"
  },
  {
    "id": 661,
    "lat": 53.91033405350001,
    "lng": 27.5950427893,
    "name": "вуліца Платонава"
  },
  {
    "id": 662,
    "lat": 53.872511901,
    "lng": 27.663418336099998,
    "name": "вуліца Будаўнікоў"
  },
  {
    "id": 663,
    "lat": 53.89495203469999,
    "lng": 27.509697696799996,
    "name": "вуліца Волаха"
  },
  {
    "id": 664,
    "lat": 53.93439399189998,
    "lng": 27.502893618,
    "name": "вуліца Крупцы"
  },
  {
    "id": 665,
    "lat": 53.8730306119,
    "lng": 27.616146218400004,
    "name": "вуліца Яна Райніса"
  },
  {
    "id": 666,
    "lat": 53.932508129800006,
    "lng": 27.544795566099996,
    "name": "вуліца Рылеева"
  },
  {
    "id": 667,
    "lat": 53.868413542599995,
    "lng": 27.5485425197,
    "name": "вуліца Ніколы Тэслы"
  },
  {
    "id": 668,
    "lat": 53.93632541860001,
    "lng": 27.580461813699998,
    "name": "вуліца Някрасава"
  },
  {
    "id": 669,
    "lat": 53.902783924,
    "lng": 27.5078992748,
    "name": ""
  },
  {
    "id": 670,
    "lat": 53.8809091224,
    "lng": 27.670614349199997,
    "name": "2-і Енісейскі завулак"
  },
  {
    "id": 671,
    "lat": 53.90795448530001,
    "lng": 27.67271641,
    "name": "Лесапаркавая вуліца"
  },
  {
    "id": 672,
    "lat": 53.8982973103,
    "lng": 27.6795068855,
    "name": ""
  },
  {
    "id": 673,
    "lat": 53.8639625881,
    "lng": 27.6102505747,
    "name": "вуліца Пляханава"
  },
  {
    "id": 674,
    "lat": 53.8523647068,
    "lng": 27.4807097714,
    "name": "вуліца Ежы Гедройца"
  },
  {
    "id": 675,
    "lat": 53.87423115999998,
    "lng": 27.47807925,
    "name": ""
  },
  {
    "id": 676,
    "lat": 53.8845398433,
    "lng": 27.508152633199998,
    "name": ""
  },
  {
    "id": 677,
    "lat": 53.9008860753,
    "lng": 27.515548696200003,
    "name": "вуліца Гусоўскага"
  },
  {
    "id": 678,
    "lat": 53.9016193504,
    "lng": 27.590016235800004,
    "name": "Слясарная вуліца"
  },
  {
    "id": 679,
    "lat": 53.906185540500005,
    "lng": 27.4812558275,
    "name": "вуліца Бельскага"
  },
  {
    "id": 680,
    "lat": 53.91300749859999,
    "lng": 27.674213053499997,
    "name": "вуліца Сувязістаў"
  },
  {
    "id": 681,
    "lat": 53.91243939459999,
    "lng": 27.485220669699995,
    "name": ""
  },
  {
    "id": 682,
    "lat": 53.8600479595,
    "lng": 27.607679407399996,
    "name": "праспект Ракасоўскага"
  },
  {
    "id": 683,
    "lat": 53.872857025399995,
    "lng": 27.539472121299998,
    "name": "Аэрадромная вуліца"
  },
  {
    "id": 684,
    "lat": 53.85402576389999,
    "lng": 27.433981134699998,
    "name": "Слабадская вуліца"
  },
  {
    "id": 685,
    "lat": 53.88099612709998,
    "lng": 27.4384844739,
    "name": ""
  },
  {
    "id": 686,
    "lat": 53.92391183819999,
    "lng": 27.455297369399997,
    "name": "вуліца Уладзіслава Галубка"
  },
  {
    "id": 687,
    "lat": 53.88214858309999,
    "lng": 27.5962126043,
    "name": "Партызанскі праспект"
  },
  {
    "id": 688,
    "lat": 53.85601907,
    "lng": 27.568282028,
    "name": "Навасельская вуліца"
  },
  {
    "id": 689,
    "lat": 53.91240087939998,
    "lng": 27.585238233,
    "name": "вуліца Залатая Горка"
  },
  {
    "id": 690,
    "lat": 53.90460289019997,
    "lng": 27.5371388316,
    "name": "вуліца Караля"
  },
  {
    "id": 691,
    "lat": 53.89129284809999,
    "lng": 27.451681338399997,
    "name": ""
  },
  {
    "id": 692,
    "lat": 53.85990346539998,
    "lng": 27.4686122718,
    "name": ""
  },
  {
    "id": 693,
    "lat": 53.84768810459999,
    "lng": 27.573458336,
    "name": ""
  },
  {
    "id": 694,
    "lat": 53.95756105310001,
    "lng": 27.660751649899996,
    "name": "вуліца Міхаіла Міля"
  },
  {
    "id": 695,
    "lat": 53.8941474273,
    "lng": 27.528273183899998,
    "name": ""
  },
  {
    "id": 696,
    "lat": 53.862194083099986,
    "lng": 27.6045272301,
    "name": "вуліца Пляханава"
  },
  {
    "id": 697,
    "lat": 53.906669952299985,
    "lng": 27.5472053359,
    "name": "вуліца Вызвалення"
  },
  {
    "id": 698,
    "lat": 53.931665470000006,
    "lng": 27.54091738,
    "name": ""
  },
  {
    "id": 699,
    "lat": 53.92541312219999,
    "lng": 27.480748778199995,
    "name": "2-і Радыятарны завулак"
  },
  {
    "id": 700,
    "lat": 53.8358322243,
    "lng": 27.6011710074,
    "name": "вуліца Віктара Турава"
  },
  {
    "id": 701,
    "lat": 53.942526829500004,
    "lng": 27.424022549899995,
    "name": "вуліца Танкістаў"
  },
  {
    "id": 702,
    "lat": 53.9017677138,
    "lng": 27.6659736537,
    "name": "вуліца Ваўпшасава"
  },
  {
    "id": 703,
    "lat": 53.89764433939998,
    "lng": 27.532597372699996,
    "name": "вуліца Карла Лібкнехта"
  },
  {
    "id": 704,
    "lat": 53.92923207819997,
    "lng": 27.650052454799997,
    "name": "Язмінавая вуліца"
  },
  {
    "id": 705,
    "lat": 53.85000773769999,
    "lng": 27.672467714100005,
    "name": "МКАД"
  },
  {
    "id": 706,
    "lat": 53.889943866899976,
    "lng": 27.5034839892,
    "name": "вуліца Розы Люксембург"
  },
  {
    "id": 707,
    "lat": 53.851342127600006,
    "lng": 27.614235115999996,
    "name": ""
  },
  {
    "id": 708,
    "lat": 53.9009774668,
    "lng": 27.5453068035,
    "name": "вуліца Караля"
  },
  {
    "id": 709,
    "lat": 53.88563251728448,
    "lng": 27.514186193976826,
    "name": ""
  },
  {
    "id": 710,
    "lat": 53.906966,
    "lng": 27.596707999999996,
    "name": ""
  },
  {
    "id": 711,
    "lat": 53.90934299370001,
    "lng": 27.589322342999996,
    "name": "Берасцянская вуліца"
  },
  {
    "id": 712,
    "lat": 53.936948672399986,
    "lng": 27.4718197202,
    "name": "Мястраўская вуліца"
  },
  {
    "id": 713,
    "lat": 53.85270419479999,
    "lng": 27.4861858668,
    "name": ""
  },
  {
    "id": 714,
    "lat": 53.91013896909999,
    "lng": 27.650737327499996,
    "name": "вуліца Анаева"
  },
  {
    "id": 715,
    "lat": 53.84228723549999,
    "lng": 27.584631494099998,
    "name": "вуліца Аркадзя Смоліча"
  },
  {
    "id": 716,
    "lat": 53.890941346000005,
    "lng": 27.5283116057,
    "name": "2-і Возніцкі завулак"
  },
  {
    "id": 717,
    "lat": 53.88702469079997,
    "lng": 27.626551956399997,
    "name": "вуліца Ваўпшасава"
  },
  {
    "id": 718,
    "lat": 53.9174899146,
    "lng": 27.560807106299997,
    "name": "праспект Машэрава"
  },
  {
    "id": 719,
    "lat": 53.8772563967,
    "lng": 27.4523805655,
    "name": "вуліца Рыгора Шырмы"
  },
  {
    "id": 720,
    "lat": 53.84280595359998,
    "lng": 27.6284407433,
    "name": ""
  }
]
